,명칭,주소,위도,경도,분류
0,가창옛날찐빵손만두 본점,대구광역시 달성군 가창면 가창로 1099,35.802672541,128.6221844139,음식점_카페
1,호찐빵만두나라,대구광역시 달성군 가창면 가창로 1102,35.8028586357,128.6224621621,음식점_카페
2,커피명가 라핀카,대구광역시 수성구 국채보상로 953-1,35.8676626453,128.6349148183,음식점_카페
3,커피 앤 스토리,대구광역시 동구 팔공산로185길 71,35.9887889108,128.6940839922,음식점_카페
4,제로테이블,대구광역시 수성구 수성로68길 35-8(수성동2가),35.8553886839,128.615941831,음식점_카페
5,비움,대구광역시 북구 침산남로9길 43,35.8923394341,128.5822159956,음식점_카페
6,더 메모리,대구광역시 군위군 산성가음로 711,36.1269482677,128.6955771856,음식점_카페
7,마이커피컬로맨스,대구광역시 중구 동성로4길 93,35.8689451782,128.5994290192,음식점_카페
8,류,대구광역시 중구 동성로4길 91,35.8688285236,128.5993956921,음식점_카페
9,루시드,대구광역시 중구 동성로4길 94,35.8688285283,128.599651225,음식점_카페
10,딜리저트,대구광역시 달서구 중흥로 14송현동,35.8324290537,128.5552922552,음식점_카페
11,[백년가게]밀밭베이커리,대구광역시 중구 국채보상로 602-1,35.8704755085,128.5966153358,음식점_카페
12,[백년가게]햇님베이커리,대구광역시 중구 달구벌대로389길 70,35.866300599,128.5758811671,음식점_카페
13,금강역 레일카페(반야월연꽃마을협동조합),대구광역시 동구 금강로 153,35.8626567704,128.7371892881,음식점_카페
14,빌리웍스,대구광역시 북구 고성북로10길 41(고성동3가),35.8831850318,128.5885268055,음식점_카페
15,카페담,대구광역시 달성군 유가읍 유가사2길 15,35.7149524387,128.5000725841,음식점_카페
16,대화의장,대구광역시 중구 북성로 104-15,35.8738334166,128.5941682353,음식점_카페
17,퀸즈크라운베이커리카페,대구광역시 서구 서대구로 118(평리동)퀸즈크라운베이커리카페,35.8685499711,128.5556412216,음식점_카페
18,아눅앞산,대구광역시 남구 앞산순환로 459(대명동),35.8323072121,128.5752071709,음식점_카페
19,산엘아르카,대구광역시 달성군 유가읍 휴양림길 416,35.7021426892,128.4953427971,음식점_카페
20,데우스커피,대구광역시 수성구 동대구로14길 15-6(지산동) 2층,35.8372936811,128.6252526257,음식점_카페
21,보스턴커피(보스턴),대구광역시 동구 방촌로 58(검사동),35.8854388643,128.6594454952,음식점_카페
22,부바스(본점),대구광역시 수성구 무학로 152(두산동),35.8299556214,128.6252056122,음식점_카페
23,무화커피,대구광역시 수성구 국채보상로186길 81(범어동) 2층,35.8647574058,128.6342649565,음식점_카페
24,텀트리프로젝트,대구광역시 수성구 용학로 138(두산동),35.8236368725,128.6241586578,음식점_카페
25,퍼피80,대구광역시 동구 서촌로7길 7-3(덕곡동),35.9791082335,128.6283095078,음식점_카페
26,커피플라자,대구광역시 남구 앞산순환로87길 49(대명동),35.8328209994,128.5728712513,음식점_카페
27,더크,대구광역시 남구 안골길 42(대명동),35.8369539358,128.576701355,음식점_카페
28,트룰리베이커,대구광역시 중구  봉산문화1길 (32),35.8632263733,128.5990042157,음식점_카페
29,두낫디스터브 비슬산,대구광역시 달성군 휴양림길 670,35.7002702406,128.4714143985,음식점_카페
30,리틀맨리,대구광역시 군위군 창평길 25-3,36.0991786371,128.6654500754,음식점_카페
31,카페댐댐,대구광역시 군위군 삼국유사로 438-16,36.1233061006,128.7954573601,음식점_카페
32,카페스톤,대구광역시 군위군 한티로 1525-6,36.0299191839,128.6307495338,음식점_카페
33,카페우즈,대구광역시 군위군 한티로 2036,36.0498951726,128.6564717016,음식점_카페
34,헤이마,대구광역시 동구 파계로 583,35.9820996864,128.6351282671,음식점_카페
35,피카커피,대구광역시 북구 학정로110길 24-1,35.9524601225,128.5671462033,음식점_카페
36,83커피바,대구광역시 중구 북성로 83,35.8743805287,128.5915545615,음식점_카페
37,까사드테하,대구광역시 달성군 녹문길 16-11,35.735469702,128.6588052798,음식점_카페
38,stay550,대구광역시 달성군 성화로 501층,35.8009647012,128.4873907742,음식점_카페
39,곳 카페,대구광역시 동구 팔공로 525,35.9450568734,128.6465394101,음식점_카페
40,카페멜트,대구광역시 북구 공항로 89,35.9000365704,128.6247981393,음식점_카페
41,롤러커피,대구광역시 중구 달구벌대로414길 36,35.8645538214,128.5892939232,음식점_카페
42,포켓,대구광역시 수성구 수성못길 20,35.8266781604,128.6222642951,음식점_카페
43,NOT ONLY COFFEE URBAN DELI,대구광역시 수성구 용학로 106-7,35.8244394704,128.6193062845,음식점_카페
44,게이블루프커피,대구광역시 달성군 강정본길 77,35.8423623562,128.4635722847,음식점_카페
45,대새목장,대구광역시 달성군 가창로93길 523,35.7459286871,128.607528943,음식점_카페
46,카르멜,대구광역시 달성군 달구벌대로 616,35.8501472812,128.4469735323,음식점_카페
47,카페공가,대구광역시 달성군 주리1길 52-5,35.7579891481,128.6462585357,음식점_카페
48,오르다카페,대구광역시 남구 안지랑로 11,35.8323321358,128.5712103002,음식점_카페
49,베를린 에스프레소 바,대구광역시 달서구 미리샘길 821층,35.8077316489,128.5444438953,음식점_카페
50,카페 엠엔티,대구광역시 달서구 조암남로14길 52-2,35.8231212354,128.5259950934,음식점_카페
51,벨베꼼메,대구광역시 달성군 세천북로 66,35.8778807616,128.4747647589,음식점_카페
52,도케비커피 본점,대구광역시 달성군 음동길 130-15,35.6980013613,128.4882740882,음식점_카페
53,온더레일,대구광역시 달성군 가창로93길 52,35.7554116051,128.6431977662,음식점_카페
54,커피로드333/espresso&drip bar,대구광역시 달성군 현풍로 268,35.7009312722,128.471136627,음식점_카페
55,마고플레인비스타,대구광역시 동구 혁신대로 104,35.8788460674,128.7081636125,음식점_카페
56,벨빌베이크하우스 팔공산점,대구광역시 동구 파계로 512,35.977855646,128.6309537543,음식점_카페
57,수수밀소,대구광역시 동구 매여로 320,35.906865247,128.7151094384,음식점_카페
58,에녹커피,대구광역시 동구 아양로 344,35.894584791,128.64540481,음식점_카페
59,팜테이블 수성못점,대구광역시 수성구 용학로 1152동,35.8250061288,128.6223476679,음식점_카페
60,더 디퍼,대구광역시 중구 서성로 67,35.8726056458,128.5870133442,음식점_카페
61,사운즈프리미어,대구광역시 수성구 들안로73길 50-10,35.8643598854,128.6156832707,음식점_카페
62,김진수로스터리카페,대구광역시 중구 이천로 205,35.8596128848,128.5985404683,음식점_카페
63,라겟옴,대구광역시 남구 앞산순환로87길 511층,35.8329071016,128.5728934691,음식점_카페
64,오마모리,대구광역시 남구 대명남로 167,35.8359873718,128.5763236372,음식점_카페
65,대봉정,대구광역시 중구 명덕로 249,35.8564049042,128.5979822734,음식점_카페
66,스테이블모먼트,대구광역시 달서구 조암남로32길 24,35.818854873,128.516268291,음식점_카페
67,SOUNDS COFFEE,대구광역시 중구 달구벌대로447길 19,35.8633765119,128.6074284699,음식점_카페
68,마고플레인 강정보점,대구광역시 달성군 강정본길 68-18,35.8442205082,128.4651498718,음식점_카페
69,"엔엘리오카페, 베이커리, 레스토랑",대구광역시 달성군 비슬로 1137,35.7335739489,128.4243481828,음식점_카페
70,레이틀리92,대구광역시 동구 초례로 6,35.8756305871,128.7525153541,음식점_카페
71,룰리커피,대구광역시 수성구 고모로 188,35.8565425061,128.6795556428,음식점_카페
72,르그랑팔레드 고바슨 수성점,대구광역시 수성구 용학로 106-7수성스퀘어 1층,35.8244394704,128.6193062845,음식점_카페
73,티아이티에프,대구광역시 동구 팔공산로 1169,35.9882833871,128.6927119045,음식점_카페
74,스테이블모먼트,대구광역시 북구 복현로8길 19-36,35.8973896672,128.6258203454,음식점_카페
75,초이스엠,대구광역시 동구 팔공산로 260,35.9929286227,128.6139492759,음식점_카페
76,인스퍼레이션디동촌유원지,대구광역시 동구 효동로6길 57,35.8832972478,128.6490909113,음식점_카페
77,앞산게장,대구광역시 남구 앞산순환로 4731층,35.8324322209,128.5764403928,음식점_카페
78,째미핑거,대구광역시 동구 팔공산로 1165-7,35.9888361031,128.6927563294,음식점_카페
79,커들포드,대구광역시 동구 팔공로 1334,35.9593650086,128.7232600252,음식점_카페
80,카펠라,대구광역시 남구 앞산순환로 449,35.8316128248,128.5740434042,음식점_카페
81,슬로우스톤,대구광역시 달성군 휴양림길 109,35.6880054202,128.4965847435,음식점_카페
82,트리팜,대구광역시 동구 서촌로 133,35.9859295611,128.6217876698,음식점_카페
83,오퐁드부아,대구광역시 달성군 주리2길 104,35.7524614839,128.6184944645,음식점_카페
84,제니아빈,대구광역시 달서구 성서공단로15길 102층,35.8358719241,128.4908061747,음식점_카페
85,하이브,대구광역시 동구 파계로 653,35.9884628656,128.635728036,음식점_카페
86,유가제빵소,대구광역시 달성군 테크노중앙대로1길 35,35.6729841578,128.4562192616,음식점_카페
87,자연충만,대구광역시 달성군 마비정길 163,35.7828814807,128.5334538837,음식점_카페
88,마르텐사이트,대구광역시 달성군 하빈로 363,35.89985262,128.4392033979,음식점_카페
89,스위치온,대구광역시 달성군 헐티로11길 35,35.7881515923,128.6021699114,음식점_카페
90,메르헨카페,대구광역시 달성군 성산로 12811층,35.7610703665,128.398483039,음식점_카페
91,카페비슬,대구광역시 달성군 음동길 201,35.7025648387,128.4939734615,음식점_카페
92,마고플레인 아양점,대구광역시 동구 해동로 107,35.8903963138,128.6420218916,음식점_카페
93,메종듀미디,대구광역시 동구 서촌로21길 11,35.983543763,128.6240903116,음식점_카페
94,브런치달랏,대구광역시 동구 팔공로 400-6,35.9344524918,128.6450676145,음식점_카페
95,슬로우라이프,대구광역시 수성구 동대구로77길 33-4,35.8644683724,128.6246241472,음식점_카페
96,우니카트,대구광역시 수성구 범어천로 151-4,35.8605159932,128.6220022658,음식점_카페
97,성당못빌,대구광역시 남구 성당로 54-5,35.8420780761,128.5615192167,음식점_카페
98,프라그란자,대구광역시 달성군 가창로176길 29,35.7897770054,128.6345753483,음식점_카페
99,스테이블모먼트,대구광역시 달성군 비슬로 2614-9,35.8045645741,128.5026809943,음식점_카페
100,샵원커피,대구광역시 중구 경상감영길 170,35.8721142149,128.5967708314,음식점_카페
101,삼송빵집 본점,대구광역시 중구 동성로3가 1-3,35.8686534349,128.5934712192,음식점_카페
