명칭,우편번호,관리자,전화번호,주소,위도,경도,개요,문의 및 안내,규모,판매품목,품목별 가격,장서는 날,개장일,영업시간,쉬는날,매장안내,주차시설,문화센터 바로가기,유모차 대여 여부,애완동물 동반 가능 여부,신용카드 가능 여부,화장실,상세정보
"군위장 (3, 8일)",39015,군위시장,054-380-6068,대구광역시 군위군 군위읍 중앙5길 12-8,36.2389498117,128.5668104006,"군위장은 전형적인 농촌의 5일장으로서 각 계절별 농산물을 비롯한 수산물, 축산물, 의류,음식,생필품까지 거래되고 있다. 물론 저가품으로 거래된다. 5일장이 열리는 날이면 군위읍 시가지 버스 정류장에서부터 군위농협까지 400여m의  2차선 도로및 인도가 각종 노점상들로 메워져 발디딜 틈이 없을 정도다. 도로 뒤편에 자리한 장은 3천평 규모의 재래식 시장으로 군위장이 생긴 것은 잘알 수는 없지만 오래전부터 자연발생적으로 생겨났다. 한때 대도시의 백화점등 대규모 호화 상가의 붐 때문에 이 곳의 재래식 농촌시장도  한때 축소되기도 했지만 인근지역 시장들이 폐쇄 되는 바람에 최근 들어서는 오히려 시장의 유동인구 4,000 ~ 5,000명을 웃도는등 군위장이 활기를 띠고 있다.

군위장은 군위에서 생산되는 마늘,오이,고추,배추 등 농산물이 주류를 이루는데 인근지역에서 생산되는 농산물도 집결돼 염가 및 소매로 팔리고 있다.  또한 우시장도 열리고 있고 옹기장수와 대장간도 자리잡고 있다. 인근 야산에서 직접 채취한 약초, 나물을 비롯해 향토음식도 맛볼 수 있다.",054-380-6068,,"계절별농산물, 산채, 돼지, 우시장, 농기구",,"매월 3, 8, 13, 18, 23, 28일(5일장)",,,,,,,없음,없음,없음,,
관문시장,42498,,053-627-2610,대구광역시 남구 대명서7길 24-3(대명동),35.8356342966,128.5580002605,"대구광역시 남구 대명동에 위치하며 대명동 주민들이 이용하는 남구 대명동 최대의 재래시장. 성주, 고령에서 오는 채소, 과일 노점상이 활성화 되어 신선하고 싸게 구입할수 있다. 대명10동 회시장과 인접하고, 대로변에는 막창집들이 크게 활성화 되어있다.",053-627-2610,"대지면적 5,573㎡<br />
점포172개소(노점340여개)","채소류, 과일류 등",,,,,,,,,없음,없음,없음,,
퀸스로드,41843,,,대구광역시 서구 평리로35길 18-17,35.8617144394,128.5450562330,"구) 대구 도축장 자리에 2003년 스트리트형 패션 아울렛 단지로 개점하여, 현재 100여개의 유명 브랜드 업소가 입주해 있다. 쇼핑뿐만 아니라 문화생활을 동시에 즐길 수 있는 복합문화공간으로 유럽풍의 건물과 5천여 평에 이르는 부지에 지하 2층, 지상 3층의 11개 건물로 군집해 있다.<br>",053-552-4800,약 5천여평,"의류, 신발 및 잡화",,,,10:30 ~ 21:00,명절당일,,주차 가능,,없음,없음,가능,화장실 있음,
대구종합유통단지관리공단,41505,,,대구광역시 북구 유통단지로13길 9,35.9082297975,128.6091270699,"국내 최대의 One-Stop 테마상가로 국내 최대 규모인 837,721㎡ 부지에 대구산업의 집약체로 탄생했다. 섬유·의류, 가구, 전자제품, 전기재료, 조명, 산업용품, 기계공구 등 쇼핑의 모든 것을 저렴한 가격에 만날 수 있으며, 각 시설별로 다양한 편의시설과 넉넉한 주차장을 확보하고 있다.",053-381-3690,"837,721㎡","산업용품, 기계공구, 전자, 전기재료, 조명, 섬유, 의류, 가구, 생필품, 철강 등",,,,"산업용재관, 전기조명관, 전기재료관 09:00 ~ 19:00<br />의류관(NC아울렛) 11:00 ~ 21:00<br />섬유제품관 09:00 ~ 20:00<br />전자관 09:30 ~ 20:30<br />전자상가 09:00 ~ 19:00<br />※ 개별업체는 업체마다 다름",섬유제품관/전자관 매월 셋째주 수요일,,주차 가능,,없음,없음,없음,,
스킨푸드동성로점,41937,,,대구광역시 중구 동성로31스킨푸드,35.8695950309,128.5954265754,-,053-423-6259,,향수 및 화장품,,월~일요일,,12:00~21:00,,"이용환급창구 운영사업자 : 글로벌텍스프리(GTF), 환급서비스 제공방식 : 사후",불가능,,,,가능,,
롭스_이시아폴리스아울렛점,41026,,,"대구광역시 동구 팔공로49길 16, 1층(봉무동, 롯데쇼핑 이시아폴리스점)",35.9215899181,128.6373908727,-,053-945-2499,,"기념품점,식료품,향수 및 화장품",,월~일요일,,11:00~21:00,명절,"이용환급창구 운영사업자 : 글로벌텍스프리(GTF), 환급서비스 제공방식 : 사후",가능,,,,가능,완비,
파타고니아_대구칠곡직영점,41451,,,대구 북구 칠곡중앙대로 379 1층,35.9295762447,128.5476207864,-,053-327-3074,,스포츠 용품 및 의류,,월~일요일,,10:30~20:30,명절,"이용환급창구 운영사업자 : 글로벌텍스프리(GTF), 환급서비스 제공방식 : 즉시",가능,,,,가능,완비,
나이스클랍_롯데대구이시아폴리스,41026,,,대구광역시 동구 팔공로49길 16(봉무동),35.9215899181,128.6373908727,-,,,"가죽 제품 및 가방,기타 패션 및 의류,신발,여성의류",,월~일요일,,11:00~21:00,명절,"이용환급창구 운영사업자 : 글로벌텍스프리(GTF), 환급서비스 제공방식 : 사후",가능,,,,가능,완비,
방천시장,41951,,,대구광역시 중구 달구벌대로446길,35.8621793994,128.6060480689,"대구 도심을 남북으로 통과하는 신천(新川)에 놓인 12개의 다리 중 하나인 수성교 옆에 자리 잡고 있는 재래시장이다. 1945년 광복 후 일본과 만주 등지에서 돌아온 전재민(戰災民)들이 호구지책으로 장사를 시작하면서 생긴 시장으로, 신천제방을 따라 터를 잡았다 하여 방천시장이라 불리기 시작했다. 당시 수성교에서 남쪽으로 방천을 따라 약 500m에 걸쳐 형성되었으며, 상인들이 새끼줄을 이용해 ‘井’자 모양으로 시장을 구획하여 복잡한 시장을 정리하였다 한다. 주로 채소·과일·곡물 등의 식품류와 잡화를 취급한다.",,,식품류 / 잡화류,,,,,,,,,없음,없음,없음,,
청구시장,42049,,,대구광역시 수성구 만촌로 66(만촌동),35.8648464663,128.6441057542,"1980년에 개설된 청구시장은 총 2층의 60개 점포로 구성된 소규모 전통시장이다. 만촌동 단독주택 밀집 지역에 있어 주변 주민들이 많이 이용하고 있다. 
동대구역과 범어동에서 멀지 않아 대구 관광 시 가볍게 들르기 좋고, 먹거리뿐만 아니라 다양한 품목을 저렴한 가격에 쇼핑할 수 있다.",053-803-3881~3886,,"농·수·축산물, 음식점, 공산품 등",,,,06:00~21:00,연중무휴,,없음,,없음,없음,없음,,
동구시장,41239,,,대구광역시 동구 화랑로25길 1(효목동),35.8743258754,128.6401113968,"동구시장은 2007년 대구 최초로 모범시장으로 선정됐다. 시장에서는 칼국수, 부침개 등 즉석에서 요리한 각종 먹거리를 판다. 이 밖에 과일류와 채소류 등을 구입할 수 있다. 인근 관광지로는 화랑공원, 동촌유원지, 대구시니어체험관, 대구아쿠아리움 등이 있다.<br>*사진 출처: 대구광역시청",053-744-6569,,"각종 먹거리, 채소류, 생선류, 의류, 생활용품 등",,,,05:00-20:00,"첫째주, 셋째주 일요일","대지면적 1,492㎡ / 연면적 1,988㎡ / 매장면적 1,021㎡ / 148개소",없음,,없음,없음,없음,있음,
반야월종합시장,41110,,,대구광역시 동구 율하동로 144(신기동),35.8724411419,128.7030531299,"반야월종합시장은 매달 1일과 6일에 오일장이 열린다. 이곳에서는 먹을거리는 물론 의류, 잡화 등을 저렴한 가격에 구입할 수 있다. 반야월종합시장은 지하철 1호선을 타고 신기역에서 내리면 걸어서 5분이면 닿는다.인근 관광지로는 율화광장, 안심근린공원, 반계근린공원, 고산서당 등이 있다.<br>*사진 출처: 대구광역시청",053-963-9948,,"의류, 잡화",,,,"09:00-20:00 (상가건물) / 매월 1일, 6일(상가주변부 5일장)","첫째주, 셋째주 일요일(상가건물)","대지면적 9,821㎡ / 연면적 25,609㎡ / 매장면적 9,627㎡ / 50개소",있음,,없음,없음,없음,있음,
산격종합시장,41535,,,대구광역시 북구 동북로 164(산격동),35.8992197322,128.6104799795,"산격종합시장은 상가주택건물형 시장이다. 이곳에서는 떡, 반찬 등 각종 먹거리와 생채소류, 생선류, 육류, 의류, 생활용품 등을 파는 상점이 있다. 최근에는 산격종합시장 내 빈 점포를 활용한 대구 제1호 청년몰이 입점해 시장에 활기를 불어넣고 있다. 주변 볼거리로는 대구교육박물관이 있다.
*사진 출처: 대구광역시청",053-959-8596,,"각종 먹거리, 채소류, 생선류, 육류, 의류, 생활용품 등",,,,10:00-20:00,점포별 상이,"대지면적 5,455㎡ / 연면적 5,760㎡ / 매장면적 2,331㎡ / 50개소",불가,,없음,없음,없음,있음,
롯데마트_토이저러스대구율하점,41097,,,대구광역시 동구 안심로 80 (율하동),35.8684941880,128.6934207547,-,053-607-2700,,기타 소매,,월~일요일,,11:00~21:00,월1회,"이용환급창구 운영사업자 : 글로벌텍스프리(GTF), 환급서비스 제공방식 : 사후",가능,,,,가능,완비,
다이아미 현대백화점 대구점,41936,,,대구광역시 중구 달구벌대로 2077,35.8666702733,128.5906548560,-,053-245-2297,,보석(장신구),,월~일요일,,10:30~20:00,명절,"이용환급창구 운영사업자 : 글로벌텍스프리(GTF), 환급서비스 제공방식 : 사후",가능,,,,가능,완비,
까르띠에 신세계 대구점,41229,,,대구광역시 동구 동부로 149 5층,35.8779835934,128.6292150324,-,053-661-6351,,"가죽 제품 및 가방,시계,안경,향수 및 화장품,기타 소매",,월~일요일,,11:00~20:00,"정기휴무일,명절","이용환급창구 운영사업자 : 글로벌텍스프리(GTF), 환급서비스 제공방식 : 즉시+사후",가능,,,,가능,완비,
대구광역시수산물도매시장,41488,,,대구광역시 북구 매천로18길 34(매천동),35.9026514335,128.5430497162,"대구를 대표하는 농수산물시장 가운데 하나다. 신선한 농산물과 싱싱한 수산물을 한 곳에서 만날 수 있다. 1층은 각종 농수산물을 판매하며, 2층은 구입한 활어를 먹을 수 있는 공간이다. 2층에서는 상차림 비용만 지불하면 1층에서 구입한 생선회를 먹을 수 있으며, 주류도 함께 판매하고 있다.<br>*사진 출처: 대구광역시청",053-803-7000,,각종 농수산물,,,,매장마다 다름,매장마다 다름,,있음,,없음,불가,가능,,
현풍백년도깨비시장,43003,,,대구광역시 달성군 현풍읍 현풍로6길 5,35.6947786622,128.4422698921,현풍백년도깨비시장은 1918년 3월에 개장한 역사 깊은 시장이다. 시장은 세 가지 특징을 지녔다. 먼저 다양한 세대 간의 문화를 접할 수 있는 전통시장이라는 것이 첫 번째 특징이다. 두 번째는 매월 5일과 10일에 전통 오일장이 열린다는 점이다. 마지막으로 세 번째는 전통시장에 새로운 활력을 불어넣는 청년몰이 입점해 있다는 것이다.<br>*사진 출처: 대구광역시청,053-611-2420,,"각종 먹거리, 채소류, 생선류, 육류, 의류, 생활용품 등",,,,"평일 8:30~23:00 먹거리, 평일 9:00~19:00",없음,"대지면적 16,389㎡ / 연면적 4,156㎡ / 매장면적 4,058㎡ / 65개소",있음,,없음,없음,없음,있음,
화원시장,42962,,,대구광역시 달성군 화원읍 인흥길 33-4,35.8011760035,128.4991508433,"화원시장에서는 오일장이 열린다. 장날은 1일과 6일이다. 장이 서는 날이면 평소보다 다양한 상품을 구입할 수 있다. 평소에도 문을 여는 상점이 많지만, 오일장의 분위기를 느끼려면 장날에 맞춰 방문하길 권한다. 시장에는 각종 먹거리를 비롯해 채소류, 생선류, 육류, 의류, 생활용품 등을 파는 상점이 있다.<br><br>*사진 출처: 대구광역시청",053-644-8840,"대지면적 4,487㎡ / 연면적 1,733㎡ / 매장면적 1,193㎡ / 35개소","각종 먹거리, 채소류, 생선류, 육류, 의류, 생활용품 등",,,,09:00 - 19:00,개별휴무,,주차가능,,없음,없음,없음,가능,
송라시장,41263,,,대구광역시 동구 동부로5길 10(신천동),35.8745420600,128.6153219078,"송라시장은 대구시 동구에 자리 잡은 작은 규모의 시장이다. 이곳은 작지만 다양한 쇼핑을 할 수 있다. 판매 품목이 각종 먹거리, 채소류, 생선류, 육류, 의류, 생활용품 등 알차기 때문이다. 송라시장은 대구 지하철 1호선 신천역에서 도보 2분이면 닿는다. 인근에 칠성 야시장, 원조 닭똥집 골목, 대구 아쿠아리움 등 관광지도 많다.<br>*사진 출처: 대구광역시청",053-803-3881,,"각종 먹거리, 채소류, 생선류, 육류, 의류, 생활용품 등",,,,07:00~20:00,첫째주 셋째주 일요일,"대지면적 4,609㎡ / 연면적 6,392㎡ / 매장면적 2,578㎡ / 47개소",,,없음,없음,없음,,
서문시장 5지구,41928,,,대구광역시 중구 큰장로26길 6(대신동),35.8681226635,128.5784975532,"서문시장은 한국 3대 시장 중 하나다. 경상권 최대 시장으로 주단이나 포목 등의 섬유 제품과 더불어 다양한 먹거리로 유명하다. 특히 2016년 6월에 국내 최대 규모의 ‘서문 야시장’이 개장되면서 한국의 전통과 맛을 선사할 수 있는 관광지로 부상하게 되었다. 서문시장은 약 5,000여 개의 점포와 3만여 명의 상인들이 상주하고 있다. 포목, 직물, 의류 등 섬유 관련 품목들과 청과물, 마른 해산물, 신발 등 생활에 필요한 모든 것들을 갖추고 있다. 특히 직물과 섬유 관련 제품은 전국에서 알아주는 유명한 상품이 많다. 서문시장 내에 위치한 서문시장 5지구는 의류, 내의, 그릇, 잡화 등을 중점적으로 판매하는 상점이 성업 중이다. 인근에는 동성로 다운타운, 김광석 거리, 근대역사 골목 등 가볼 만한 곳이 풍부한 관광의 중심지이기도 하다. 
(사진 출처: 대구광역시청)",053-256-6341,,"의류, 내의, 그릇, 잡화 등",,,,07:00-17:00,"첫째주, 셋째주 일요일","대지면적 4,268㎡ / 연면적 9,044㎡ / 매장면적 7,448㎡ / 233개소",가능,,없음,없음,없음,있음,
펜디 현대 대구,41936,,,대구광역시 중구 달구벌대로 2077,35.8666702733,128.5906548560,-,053-245-2115,,"가죽 제품 및 가방,여성의류",,월~일요일,,10:30~20:00,명절,"이용환급창구 운영사업자 : 글로벌텍스프리(GTF), 환급서비스 제공방식 : 사후",가능,,,,가능,완비,
홀리카홀리카_동성로중앙점,41937,,,"대구광역시 중구 동성로 31 ,2층(동성로2가)",35.8695950309,128.5954265754,-,010-2515-1704,,향수 및 화장품,,월~일요일,,11:00~21:00,,"이용환급창구 운영사업자 : 글로벌텍스프리(GTF), 환급서비스 제공방식 : 즉시+사후",불가능,,,,가능,,
방촌종합시장,41160,,,대구광역시 동구 동촌로46길 2(방촌동),35.8813671952,128.6644285030,"방촌 종합시장은 상가건물형 시장이다. 시장 천장에는 아케이드를 설치해 날씨에 관계없이 연중 장보기에 나설 수 있다. 시장에는 각종 먹거리를 비롯해 채소류, 생선류, 육류, 의류, 생활용품 등을 파는 상점이 들어찼다. 특히 이곳의 명물은 떡볶이로, 시장 내부에 떡볶이 골목이 자리 잡고 있다.<br>*사진 출처: 대구시 동구청",053-984-5317,,"각종 먹거리, 채소류, 생선류, 육류, 의류, 생활용품 등",,,,상점별로 다름,상점별로 다름,,있음,,없음,불가,가능,,
교동시장,41912,,,대구광역시 중구 동성로 70-17(교동),35.8729974465,128.5966874810,"대구역과 동성로 사이에 자리 잡은 전통시장이다. 토속음식부터 퓨전 음식까지 다양한 먹거리를 판매하고 있다. 대구의 대형 전통시장과 달리 교동시장은 좁은 골목길이 여전히 남아 있고, 길목 사이사이 오래된 추억이 묻어있어 10년 전이나 20년 전이나 그 길목을 찾는 사람들에게는 가장 변함없는 전통시장이다. 교동시장의 귀여운 도깨비가 안내해주는 길목을 따라 들어가면, 옹기종기 이웃사촌하고 있는 상인들의 분주하게 하루를 열고 있다. 지하철 1호선 중앙로 역에서 도보 3분, 대구역에서 도보 8분이 소요된다. 인근 관광지로는 향촌문화관, 동성로 2.28 기념 중앙공원, 대구 근대골목 등이 있다.",053-424-9150,,"각종 먹거리, 채소류, 생선류, 의류, 생활용품 등",,,,상시 이용,점포별 상이,"규모 : 대지면적 1,515㎡ / 연면적 2,482㎡ / 매장면적 1,803㎡ / 200개소",가능,,없음,없음,없음,있음,
대평리시장,41770,,,대구광역시 서구 문화로49길 25(평리동),35.8781239484,128.5589573296,"대평리시장은 1981년 개설되었고, 시장의 규모는 중형으로 상가건물형으로 이루어져 있다. 각각의 상점에서는 곡물, 정육, 채소, 과일, 어류, 떡, 분식, 잡화, 의류 등을 팔고 있다. 시장 안에는 인근 주민들이 힘을 합쳐 만든 행복을 부르는 벽화길이 있다. 이 덕분에 벽화를 감상하며 장보기를 할 수 있는 재미를 누릴 수 있다.
*사진 출처: 대구광역시 서구청 공식 블로그",053-567-9106,,"곡물, 정육, 채소, 과일, 어류, 떡, 분식, 잡화, 의류 등",,,,점포별 상이,점포별 상이,,불가,,없음,없음,없음,,
프라다 신세계 대구점,41229,,,대구광역시 동구 동부로 149,35.8779835934,128.6292150324,-,053-661-6462,,"가죽 제품 및 가방,남성의류,신발,여성의류,향수 및 화장품",,월~일요일,,11:00~20:00,"정기휴무일,명절","이용환급창구 운영사업자 : 글로벌텍스프리(GTF), 환급서비스 제공방식 : 즉시+사후",가능,,,,가능,완비,
올리브영 대구본점,41941,,,대구광역시 중구 동성로5길 33(삼덕동1가5-1),35.8678813550,128.5964848636,-,053-431-3767,,향수 및 화장품,,월~일요일,,10:30~22:30,,"이용환급창구 운영사업자 : 글로벌텍스프리(GTF), 환급서비스 제공방식 : 즉시+사후",불가능,,,,가능,,
올리브영 대구동성로2가,41941,,,대구광역시 중구 동성로 18,35.8684757045,128.5949960892,-,053-421-5290,,향수 및 화장품,,월~일요일,,10:30~22:00,,"이용환급창구 운영사업자 : 글로벌텍스프리(GTF), 환급서비스 제공방식 : 즉시+사후",불가능,,,,가능,,
유니클로 롯데대구,41581,,,대구광역시 북구 태평로 161,35.8759276605,128.5961541136,-,,,"가죽 제품 및 가방,기타 패션 및 의류,남성의류,란제리(속옷),신발,아동의류,여성의류",,월~일요일,,10:30~20:00,,"이용환급창구 운영사업자 : 글로벌텍스프리(GTF), 환급서비스 제공방식 : 사후",가능,,,,가능,완비,
MLB 이시아폴리스,41026,,,대구광역시 동구 팔공로49길 162F,35.9215899181,128.6373908727,-,,,"기타 패션 및 의류,남성의류,신발,여성의류",,월~일요일,,11:00~21:00,명절,"이용환급창구 운영사업자 : 글로벌텍스프리(GTF), 환급서비스 제공방식 : 사후",가능,,,,가능,완비,
롭스_대구동성로점,41941,,,대구광역시 중구 동성로2길 53(공평동),35.8684090757,128.5966070600,-,053-256-3740,,"식료품,향수 및 화장품",,월~일요일,,10:30~23:00,,"이용환급창구 운영사업자 : 글로벌텍스프리(GTF), 환급서비스 제공방식 : 사후",불가능,,,,가능,,
티파니 신세계대구,41229,,,"대구광역시 동구 동부로 149, 5층(신천동, 신세계백화점 대구점)",35.8779835934,128.6292150324,-,053-661-6496,,"가죽 제품 및 가방,안경,향수 및 화장품",,월~일요일,,11:00~20:00,"정기휴무일,명절","이용환급창구 운영사업자 : 글로벌텍스프리(GTF), 환급서비스 제공방식 : 즉시+사후",가능,,,,가능,완비,
올리브영 대구동성로,41909,,,대구광역시 중구 국채보상로 593,35.8711309695,128.5955126366,-,053-252-5295,,"식료품,향수 및 화장품",,월~일요일,,10:00~22:00,,"이용환급창구 운영사업자 : 글로벌텍스프리(GTF), 환급서비스 제공방식 : 즉시+사후",불가능,,,,가능,,
클럽클리오_(신)대구동성로클럽,41941,,,대구시 중구 동성로2가 144-3,35.8687173476,128.5951571799,-,010-8232-6644,,"향수 및 화장품,기타 소매",,월~일요일,,10:00~22:00,명절,"이용환급창구 운영사업자 : 글로벌텍스프리(GTF), 환급서비스 제공방식 : 즉시+사후",불가능,,,,가능,,
롭스 대구상인역사점,42781,,,대구시 달서구 월배로 지하 223지하상가2호,35.8189385949,128.5379497121,-,,,"식료품,악세서리,향수 및 화장품",,월~일요일,,11:00~22:30,,"이용환급창구 운영사업자 : 큐브리펀드(CubeRefund), 환급서비스 제공방식 : 사후",불가능,,,,가능,완비,
파타고니아_대구동성로점,41937,,,대구 중구 동성로 11 (동성로3가),35.8680729632,128.5944572593,-,053-428-1224,,"남성의류,여성의류",,월~일요일,,11:00~21:00,명절,"이용환급창구 운영사업자 : 큐브리펀드(CubeRefund), 환급서비스 제공방식 : 사후",불가능,,,,가능,,
올리브영 대구대백,41941,,,대구광역시 중구 동성로6길 22(공평동),35.8688673573,128.5965903827,-,053-252-2539,,"식료품,향수 및 화장품,기타 소매",,월~일요일,,10:30~22:00,,"이용환급창구 운영사업자 : 글로벌텍스프리(GTF), 환급서비스 제공방식 : 즉시+사후",불가능,,,,가능,,
루이비통 현대대구,41936,,,대구광역시 중구 달구벌대로 2077 (계산동2가) 현대백화점,35.8666702733,128.5906548560,-,,,"가죽 제품 및 가방,기타 패션 및 의류,신발,여성의류",,월~일요일,,10:30~20:00,"월1회 월요일, 명절","이용환급창구 운영사업자 : 글로벌텍스프리(GTF), 환급서비스 제공방식 : 즉시+사후",가능,,,,가능,완비,
ER 동아 쇼핑,41936,,,대구광역시 중구 달구벌대로 2085,35.8663758852,128.5918658677,-,,,"가구 및 홈데코,가든 및 DIY,가죽 제품 및 가방,기타 패션 및 의류,남성의류,란제리(속옷),보석(장신구),스포츠 용품 및 의류,시계,식료품,신발,아동의류,악세서리,안경,여성의류,전자제품,향수 및 화장품",,월~일요일,,10:30~21:00,"월1회 월요일, 명절","이용환급창구 운영사업자 : 글로벌텍스프리(GTF), 환급서비스 제공방식 : 사후",가능,,,,가능,완비,
네파 이시아폴리스,41026,,,"대구광역시 동구 팔공로49길 16(봉무동 ,롯데이시아폴리스점)",35.9215899181,128.6373908727,-,053-945-2693,,스포츠 용품 및 의류,,월~일요일,,11:00~21:00,명절,"이용환급창구 운영사업자 : 글로벌텍스프리(GTF), 환급서비스 제공방식 : 사후",가능,,,,가능,완비,
푸마셀렉트 동성로,41941,,,대구광역시 중구 동성로6길 2-231층푸마셀렉트,35.8680729837,128.5955654945,-,053-426-3356,,스포츠 용품 및 의류,,월~일요일,,10:00~22:00,,"이용환급창구 운영사업자 : 글로벌텍스프리(GTF), 환급서비스 제공방식 : 즉시",불가능,,,,가능,,
구찌 현대 대구점,41936,,,대구광역시 중구 달구벌대로 2077 1층,35.8666702733,128.5906548560,-,,,"가죽 제품 및 가방,기타 패션 및 의류,남성의류,신발,악세서리,여성의류",,월~일요일,,10:30~20:00,"월1회 월요일, 명절","이용환급창구 운영사업자 : 글로벌텍스프리(GTF), 환급서비스 제공방식 : 즉시+사후",가능,,,,가능,완비,
(주)신세계 동대구복합환승센터,41229,,,대구광역시 동구 동부로 149,35.8779835934,128.6292150324,-,053-661-1042,,"가구 및 홈데코,가든 및 DIY,가죽 제품 및 가방,기타 패션 및 의류,남성의류,란제리(속옷),보석(장신구),스포츠 용품 및 의류,시계,식료품,신발,아동의류,악세서리,안경,여성의류,전자제품,향수 및 화장품,기타 소매",,월~일요일,,11:00~20:00,"정기휴무일,명절","이용환급창구 운영사업자 : KICC(이지택스리펀드), 환급서비스 제공방식 : 즉시+사후",가능,,,,가능,완비,
대구백화점 프라자점,41953,,,대구광역시 중구 명덕로 333,35.8557884629,128.6064232139,-,053-426-1234,,"가구 및 홈데코,가든 및 DIY,가죽 제품 및 가방,기념품점,기타 패션 및 의류,남성의류,란제리(속옷),보석(장신구),스포츠 용품 및 의류,시계,식료품,신발,아동의류,악세서리,안경,여성의류,전자제품,향수 및 화장품,기타 소매",,월~일요일,,10:30~20:00,"명절, 월1회","이용환급창구 운영사업자 : 글로벌텍스프리(GTF), 환급서비스 제공방식 : 즉시+사후",가능,,,,가능,완비,
EW 뉴발란스 동성로,41937,,,대구광역시 중구 동성로 21-1,35.8689117673,128.5949988552,-,031-8036-3116,,"스포츠 용품 및 의류,신발",,월~일요일,,11:00~21:00,,"이용환급창구 운영사업자 : 글로벌텍스프리(GTF), 환급서비스 제공방식 : 즉시+사후",불가능,,,,가능,,
올리브영 대구범어,42019,,,대구광역시 수성구 달구벌대로 2379,35.8596827700,128.6228605468,-,053-742-5290,,향수 및 화장품,,월~일요일,,10:00~22:30,,"이용환급창구 운영사업자 : 글로벌텍스프리(GTF), 환급서비스 제공방식 : 사후",불가능,,,,가능,,
롯데백화점 대구점,41581,,,대구광역시 북구 태평로 161,35.8759276605,128.5961541136,-,,,"가구 및 홈데코,가든 및 DIY,가죽 제품 및 가방,기타 패션 및 의류,남성의류,란제리(속옷),보석(장신구),스포츠 용품 및 의류,시계,식료품,신발,아동의류,악세서리,안경,여성의류,전자제품,향수 및 화장품",,월~일요일,,10:30~20:00,"월1회 월요일, 명절","이용환급창구 운영사업자 : 글로벌텍스프리(GTF), 환급서비스 제공방식 : 즉시+사후",가능,,,,가능,완비,
페레가모 롯데 대구점,41581,,,대구광역시 북구 태평로 161,35.8759276605,128.5961541136,-,,,"가죽 제품 및 가방,기타 패션 및 의류,신발,여성의류",,월~일요일,,10:30~20:00,"월1회 월요일, 명절","이용환급창구 운영사업자 : 글로벌블루, 환급서비스 제공방식 : 기타",가능,,,,가능,완비,
나이키 모다몰대구,42714,,,"대구광역시 달서구 달서대로 411(호림동, 모다아울렛)",35.8358747119,128.4913950113,-,053-593-4994,,"daeyeon-retait.com스포츠 용품 및 의류,신발",,월~일요일,,11:00~21:00,,"이용환급창구 운영사업자 : 글로벌텍스프리(GTF), 환급서비스 제공방식 : 기타",가능,,,,가능,완비,
올리브영 대구감삼DI,42658,,,대구광역시 달서구 와룡로 130,35.8441912865,128.5376268184,-,053-521-5977,,향수 및 화장품,,월~일요일,,10:30~22:00,,"이용환급창구 운영사업자 : 글로벌텍스프리(GTF), 환급서비스 제공방식 : 사후",불가능,,,,가능,,
올리브영 대구시지,42274,,,대구광역시 수성구 달구벌대로 3214,35.8395893931,128.7079063987,-,053-795-5290,,"란제리(속옷),스포츠 용품 및 의류,식료품,향수 및 화장품",,월~일요일,,10:00~22:30,,"이용환급창구 운영사업자 : 글로벌텍스프리(GTF), 환급서비스 제공방식 : 사후",불가능,,,,가능,,
버버리 롯데 대구점,41581,,,대구광역시 북구 태평로 161 2층,35.8759276605,128.5961541136,-,053-660-3080,,"가죽 제품 및 가방,남성의류,여성의류",,월~일요일,,10:30~20:00,"월1회, 명절","이용환급창구 운영사업자 : 글로벌텍스프리(GTF), 환급서비스 제공방식 : 즉시",가능,,,,가능,완비,
중소기업명품마루 동대구역,41229,,,대구광역시 동구 동대구로 5503F,35.8794806389,128.6288011378,-,053-716-0006,,"가죽 제품 및 가방,기념품점,기타 패션 및 의류,보석(장신구),악세서리",,월~일요일,,08:00~22:00,,"이용환급창구 운영사업자 : 글로벌텍스프리(GTF), 환급서비스 제공방식 : 사후",가능,,,,가능,완비,
(주)즐거운세상인터불고호텔,42064,,,대구광역시 수성구 팔현길212(주)즐거운세상,35.8734985441,128.6591930731,-,053-602-7114,,기타 소매,,월~일요일,,00:00~24:00,,"이용환급창구 운영사업자 : KICC(이지택스리펀드), 환급서비스 제공방식 : 사후",가능,,,,가능,완비,
아리따움 복현영진,41562,,,대구광역시 북구 동북로 246,35.8951092210,128.6177794511,-,053-958-0512,,향수 및 화장품,,월~일요일,,10:00~22:00,명절,"이용환급창구 운영사업자 : 글로벌텍스프리(GTF), 환급서비스 제공방식 : 사후",불가능,,,,가능,,
모다콜렉션,41918,,,대구광역시 중구 서성로 14 길 91 (대안동),35.8731640203,128.5926683867,-,053-256-0944,,신발,,월~일요일,,10:00~19:00,명절,"이용환급창구 운영사업자 : 글로벌텍스프리(GTF), 환급서비스 제공방식 : 즉시+사후",불가능,,,,가능,완비,
피제,41918,,,대구광역시 중구 경상감영 1 길 47 (대안동),35.8731779099,128.5927905974,-,053-254-2524,,신발,,월~일요일,,10:00~19:00,명절,"이용환급창구 운영사업자 : 글로벌텍스프리(GTF), 환급서비스 제공방식 : 즉시+사후",불가능,,,,가능,,
메릭 S,41918,,,대구광역시 중구 서성로 14 길 112 (향촌동),35.8730973807,128.5937266280,-,053-254-2524,,신발,,월~일요일,,10:00~19:00,명절,"이용환급창구 운영사업자 : 글로벌텍스프리(GTF), 환급서비스 제공방식 : 즉시+사후",불가능,,,,가능,,
분홍신,41918,,,대구광역시 중구 서성로 14 길 99 (향촌동),35.8732362410,128.5930294638,-,055-687-7400,,신발,,월~일요일,,10:00~19:00,명절,"이용환급창구 운영사업자 : 글로벌텍스프리(GTF), 환급서비스 제공방식 : 즉시+사후",불가능,,,,가능,,
나그놀스트릿 대구동성로,41941,,,대구광역시 중구 동성로2길 50-14,35.8678952605,128.5974236697,-,053-426-3539,,악세서리,,월~일요일,,11:00~22:00,,"이용환급창구 운영사업자 : 글로벌텍스프리(GTF), 환급서비스 제공방식 : 즉시",불가능,,,,가능,,
자라 롯데 봉무점,41026,,,대구광역시 동구 팔공로49길 16롯데몰1층,35.9215899181,128.6373908727,-,,,"가죽 제품 및 가방,란제리(속옷),신발,악세서리,안경",,월~일요일,,11:00~21:00,명절,"이용환급창구 운영사업자 : 글로벌블루, 환급서비스 제공방식 : 사후",가능,,,,가능,완비,
나림그림1호 대구동성로,41941,,,대구광역시 중구 동성로2길 48,35.8680230128,128.5968403836,-,053-424-3539,,악세서리,,월~일요일,,11:00~22:00,,"이용환급창구 운영사업자 : 글로벌텍스프리(GTF), 환급서비스 제공방식 : 즉시+사후",불가능,,,,가능,,
닥터마틴 대구동성로,41941,,,"대구광역시 중구 동성로 24-1, 1층",35.8689978739,128.5953210466,-,053-422-9211,,"가죽 제품 및 가방,신발",,월~일요일,,10:30~22:00,,"이용환급창구 운영사업자 : 글로벌텍스프리(GTF), 환급서비스 제공방식 : 즉시",불가능,,,,가능,,
토즈 현대 대구점,41936,,,대구광역시 중구 달구벌대로 2077 1층,35.8666702733,128.5906548560,-,,,"가죽 제품 및 가방,신발",,월~일요일,,10:30~20:00,"월1회 월요일, 명절","이용환급창구 운영사업자 : 글로벌텍스프리(GTF), 환급서비스 제공방식 : 즉시+사후",가능,,,,가능,완비,
레몬트리안경 대구동성로,41913,,,대구광역시 중구 국채보상로 595-1,35.8710420991,128.5959737095,-,053-421-8044,,안경,,월~일요일,,10:00~21:00,명절,"이용환급창구 운영사업자 : 글로벌텍스프리(GTF), 환급서비스 제공방식 : 즉시",불가능,,,,가능,완비,
렌즈미 대구동성로,41938,,,대구광역시 중구 동성로6길 19렌즈미,35.8690673336,128.5965764897,-,053-255-1423,,기타 소매,,월~일요일,,10:30~22:00,명절,"이용환급창구 운영사업자 : 글로벌텍스프리(GTF), 환급서비스 제공방식 : 사후",불가능,,,,가능,,
렌즈타운 대구동성로,41938,,,대구광역시 중구 동성로6길 19렌즈타운,35.8690673336,128.5965764897,-,053-421-2333,,기타 소매,,월~일요일,,10:00~22:30,명절,"이용환급창구 운영사업자 : 글로벌텍스프리(GTF), 환급서비스 제공방식 : 사후",불가능,,,,가능,,
MLB키즈 이시아폴리스,41026,,,대구광역시 동구 팔공로49길 16롯데아울렛2층MLB키즈,35.9215899181,128.6373908727,-,,,"기타 패션 및 의류,아동의류",,월~일요일,,11:00~21:00,명절,"이용환급창구 운영사업자 : 글로벌텍스프리(GTF), 환급서비스 제공방식 : 사후",가능,,,,가능,완비,
레쓰시계 대구동성로,41937,,,대구광역시 중구 동성로 7-1,35.8677729947,128.5943489441,-,053-425-0157,,시계,,월~일요일,,11:00~21:00,"명절, 신정","이용환급창구 운영사업자 : 글로벌텍스프리(GTF), 환급서비스 제공방식 : 즉시+사후",불가능,,,,가능,,
로데오안경 대구동성로,41942,,,대구광역시 중구 동성로4길 46,35.8667815262,128.5990068944,-,053-426-3255,,안경,,월~일요일,,11:00~22:00,명절,"이용환급창구 운영사업자 : 글로벌텍스프리(GTF), 환급서비스 제공방식 : 즉시",불가능,,,,가능,,
보름달안경 대구동성로,41942,,,대구광역시 중구 동성로1길 29-9,35.8671314166,128.5951766667,-,031-695-1741,,안경,,월~일요일,,11:00~22:00,명절,"이용환급창구 운영사업자 : 글로벌텍스프리(GTF), 환급서비스 제공방식 : 즉시+사후",불가능,,,,가능,,
블루문앤코 대구동성로,41942,,,대구광역시 중구 동성로5길 50,35.8673703158,128.5972486995,-,053-421-1010,,악세서리,,월~일요일,,10:30~22:30,,"이용환급창구 운영사업자 : 글로벌텍스프리(GTF), 환급서비스 제공방식 : 즉시+사후",불가능,,,,가능,,
씨채널한일로안경 대구동성로,41938,,,대구광역시 중구 국채보상로 604,35.8705366153,128.5967569878,-,053-427-0033,,안경,,월~일요일,,10:00~21:00,명절,"이용환급창구 운영사업자 : 글로벌텍스프리(GTF), 환급서비스 제공방식 : 즉시+사후",불가능,,,,가능,완비,
프롬앤 대구동성로,41941,,,대구광역시 중구 동성로5길 17,35.8679702186,128.5956654887,-,,,"보석(장신구),악세서리",,월~일요일,,11:00~22:00,,"이용환급창구 운영사업자 : 글로벌텍스프리(GTF), 환급서비스 제공방식 : 사후",불가능,,,,가능,,
반스 대구동성로,41942,,,대구광역시 중구 동성로 81층반스동성로점,35.8675730195,128.5944822711,-,053-423-0090,,"기타 패션 및 의류,남성의류,신발,여성의류",,월~일요일,,11:00~21:30,,"이용환급창구 운영사업자 : 글로벌텍스프리(GTF), 환급서비스 제공방식 : 사후",불가능,,,,가능,,
킴스애드안경 대구동성로,41941,,,대구광역시 중구 동성로6길 2-17킴스애드안경,35.8682674061,128.5956099295,-,053-256-4222,,안경,,월~일요일,,11:00~22:00,명절,"이용환급창구 운영사업자 : 글로벌텍스프리(GTF), 환급서비스 제공방식 : 즉시",불가능,,,,가능,,
은혜화장품 대현프리몰대구,41909,,,대구광역시 중구 국채보상로 580F11호11,35.8708809922,128.5952098924,-,053-421-8817,,향수 및 화장품,,월~일요일,,11:00~22:00,"월1회 월요일, 명절","이용환급창구 운영사업자 : 글로벌텍스프리(GTF), 환급서비스 제공방식 : 즉시",불가능,,,,가능,완비,
프렌치 대현프리몰대구,41909,,,"대구광역시 중구 국채보상로 지하580(동성로2가,대현프리몰D열1호)",35.8708809922,128.5952098924,-,053-424-6256,,신발,,월~일요일,,11:00~22:00,"월1회 월요일, 명절","이용환급창구 운영사업자 : 글로벌텍스프리(GTF), 환급서비스 제공방식 : 즉시+사후",불가능,,,,가능,완비,
에이스 대현프리몰대구,41909,,,"대구광역시 중구 국채보상로 지하580 (동성로2가, 대현프리몰c열4호)",35.8708809922,128.5952098924,-,053-257-9687,,"기념품점,시계",,월~일요일,,11:00~22:00,"월1회 월요일, 명절","이용환급창구 운영사업자 : 로드시스템, 환급서비스 제공방식 : 즉시",불가능,,,,가능,완비,
도로시 대현프리몰대구,41909,,,대구광역시 중구 국채보상로 580G9,35.8708809922,128.5952098924,-,053-424-4898,,여성의류,,월~일요일,,11:00~22:00,"월1회 월요일, 명절","이용환급창구 운영사업자 : 글로벌텍스프리(GTF), 환급서비스 제공방식 : 사후",불가능,,,,가능,완비,
보따리 대현프리몰대구,41909,,,대구광역시 중구 국채보상로 580지하D-24호,35.8708809922,128.5952098924,-,053-254-8061,,가죽 제품 및 가방,,월~일요일,,11:00~22:00,"월1회 월요일, 명절","이용환급창구 운영사업자 : 글로벌텍스프리(GTF), 환급서비스 제공방식 : 즉시",불가능,,,,가능,완비,
휴고보스 현대 대구점,41936,,,대구광역시 중구 달구벌대로 2077,35.8666702733,128.5906548560,-,053-245-2213,,"남성의류,여성의류",,월~일요일,,10:30~20:00,명절,"이용환급창구 운영사업자 : 글로벌텍스프리(GTF), 환급서비스 제공방식 : 사후",가능,,,,가능,완비,
이니스프리 동성로,41937,,,대구시 중구 동성로2가 100,35.8696839097,128.5954349063,-,053-421-4799,,향수 및 화장품,,월~일요일,,10:00~23:00,,"이용환급창구 운영사업자 : 글로벌텍스프리(GTF), 환급서비스 제공방식 : 사후",불가능,,,,가능,,
이마트트레이더스 비산,41710,,,대구광역시 서구 팔달로 54 (비산동),35.8899475547,128.5559878184,-,053-714-1234,,"가죽 제품 및 가방,기타 패션 및 의류,남성의류,란제리(속옷),보석(장신구),스포츠 용품 및 의류,시계,식료품,신발,아동의류,악세서리,안경,여성의류,전자제품,향수 및 화장품",,월~일요일,,10:00~23:00,"2,4주 일요일","이용환급창구 운영사업자 : 글로벌텍스프리(GTF), 환급서비스 제공방식 : 즉시+사후",가능,,,,가능,완비,
라코스테 대구동성로,41942,,,대구광역시 중구 동성로1길 29-361층라코스테,35.8675008245,128.5954905179,-,,,"가죽 제품 및 가방,기타 패션 및 의류,남성의류,신발,여성의류",,월~일요일,,11:00~22:00,,"이용환급창구 운영사업자 : 글로벌텍스프리(GTF), 환급서비스 제공방식 : 사후",불가능,,,,가능,,
컬럼비아 이시아폴리스,41026,,,대구광역시 동구 팔공로49길 16이시아폴리스컬럼비아,35.9215899181,128.6373908727,-,053-945-2630,,스포츠 용품 및 의류,,월~일요일,,11:00~21:00,명절,"이용환급창구 운영사업자 : 글로벌텍스프리(GTF), 환급서비스 제공방식 : 사후",가능,,,,가능,완비,
올리브영 대구두류,42645,,,대구광역시 달서구 달구벌대로 1704,35.8555013848,128.5521668902,-,053-622-5290,,향수 및 화장품,,월~일요일,,10:30~22:30,명절,"이용환급창구 운영사업자 : 글로벌텍스프리(GTF), 환급서비스 제공방식 : 즉시",불가능,,,,가능,완비,
나이키타운 동성로,41941,,,대구광역시 중구 동성로6길 2-7나이키,35.8687562420,128.5957071302,-,053-421-1674,,"스포츠 용품 및 의류,신발",,월~일요일,,11:00~22:00,명절,"이용환급창구 운영사업자 : 글로벌텍스프리(GTF), 환급서비스 제공방식 : 사후",불가능,,,,가능,,
래핑차일드 이시아폴리스,41026,,,대구광역시 동구 팔공로49길 162F,35.9215899181,128.6373908727,-,053-945-2585,,아동의류,,월~일요일,,11:00~21:00,명절,"이용환급창구 운영사업자 : 글로벌텍스프리(GTF), 환급서비스 제공방식 : 사후",가능,,,,가능,완비,
하이마트 송현점,42737,,,대구광역시 달서구 구마로 244,35.8367424411,128.5545588670,-,,,전자제품,,월~일요일,,10:30~20:30,,"이용환급창구 운영사업자 : 글로벌블루, 환급서비스 제공방식 : 사후",가능,,,,가능,완비,
하이마트 성서점,42696,,,대구광역시 달서구 달구벌대로 1300,35.8511122090,128.5095374348,-,053-584-1110,,전자제품,,월~일요일,,10:30~20:30,,"이용환급창구 운영사업자 : 글로벌블루, 환급서비스 제공방식 : 사후",가능,,,,가능,완비,
하이마트 복현점,41562,,,대구광역시 북구 대학로 150,35.8968672944,128.6144852480,-,053-954-0111,,전자제품,,월~일요일,,10:30~20:30,명절,"이용환급창구 운영사업자 : 글로벌텍스프리(GTF), 환급서비스 제공방식 : 즉시",가능,,,,가능,완비,
롯데하이마트 침산점,41577,,,대구 북구 중앙대로 598,35.8860821026,128.5980953261,-,053-341-1110,,전자제품,,월~일요일,,10:30~20:30,명절,"이용환급창구 운영사업자 : 글로벌텍스프리(GTF), 환급서비스 제공방식 : 사후",가능,,,,가능,완비,
트라이엄프,41250,,,대구 동구 대구동구동대구로454,35.8707732498,128.6265710218,-,053-430-2160,,란제리(속옷),,월~일요일,,10:30~21:00,명절,"이용환급창구 운영사업자 : 글로벌텍스프리(GTF), 환급서비스 제공방식 : 사후",가능,,,,가능,완비,
리바이스키즈,41250,,,대구 동구 대구동구동대구로454,35.8707732498,128.6265710218,-,053-430-2375,,아동의류,,월~일요일,,10:30~21:00,"정기휴무일,명절","이용환급창구 운영사업자 : 글로벌텍스프리(GTF), 환급서비스 제공방식 : 즉시+사후",가능,,,,가능,완비,
I LOVE J,41250,,,대구 동구 대구동구동대구로454,35.8707732498,128.6265710218,-,053-430-2380,,"아동의류,기타 소매",,월~일요일,,10:30~21:00,"정기휴무일,명절","이용환급창구 운영사업자 : 글로벌텍스프리(GTF), 환급서비스 제공방식 : 사후",가능,,,,가능,완비,
베네통현대아울렛대구,41250,,,대구 동구 대구동구동대구로454,35.8707732498,128.6265710218,-,053-430-2208,,"기타 패션 및 의류,신발,여성의류",,월~일요일,,10:30~21:00,명절,"이용환급창구 운영사업자 : 글로벌텍스프리(GTF), 환급서비스 제공방식 : 사후",가능,,,,가능,완비,
잇미샤 현대아울렛대구,41250,,,대구 동구 대구동구동대구로454,35.8707732498,128.6265710218,-,053-430-2227,,"여성의류,기타 소매",,월~일요일,,10:30~21:00,명절,"이용환급창구 운영사업자 : 글로벌텍스프리(GTF), 환급서비스 제공방식 : 즉시+사후",가능,,,,가능,완비,
GGPX현대아울렛대구,41250,,,대구 동구 대구동구동대구로454,35.8707732498,128.6265710218,-,053-430-2225,,"신발,여성의류,기타 소매",,월~일요일,,10:30~21:00,"정기휴무일,명절","이용환급창구 운영사업자 : 글로벌텍스프리(GTF), 환급서비스 제공방식 : 즉시+사후",가능,,,,가능,완비,
오픈클로저,41250,,,대구 동구 대구동구동대구로454,35.8707732498,128.6265710218,-,053-430-2235,,여성의류,,월~일요일,,10:30~21:00,"정기휴무일,명절","이용환급창구 운영사업자 : 글로벌텍스프리(GTF), 환급서비스 제공방식 : 즉시+사후",가능,,,,가능,완비,
에고이스트 이시아폴리스,41026,,,대구광역시 동구 팔공로49길 161층에고이스트,35.9215899181,128.6373908727,-,,,"가죽 제품 및 가방,기타 패션 및 의류,신발,여성의류",,월~일요일,,11:00~21:00,명절,"이용환급창구 운영사업자 : 기타, 환급서비스 제공방식 : 사후",가능,,,,가능,완비,
IDL 메이즈메이 이시아폴리스,41026,,,"대구광역시 동구 팔공로49길 16, 1층",35.9215899181,128.6373908727,-,053-945-2595,,여성의류,,월~일요일,,11:00~21:00,명절,"이용환급창구 운영사업자 : 글로벌텍스프리(GTF), 환급서비스 제공방식 : 즉시+사후",가능,,,,가능,완비,
올리브영동대구역사점,41229,,,대구광역시 동구 동대구로 550동대구역,35.8794806389,128.6288011378,-,053-716-5290,,"악세서리,향수 및 화장품",,월~일요일,,08:30~22:00,,"이용환급창구 운영사업자 : 글로벌텍스프리(GTF), 환급서비스 제공방식 : 즉시+사후",가능,,,,가능,완비,
코우치 롯데대구,41581,,,대구광역시 북구 태평로 161,35.8759276605,128.5961541136,-,053-660-3001,,가죽 제품 및 가방,,월~일요일,,10:30~20:00,"월1회, 명절","이용환급창구 운영사업자 : 글로벌텍스프리(GTF), 환급서비스 제공방식 : 즉시",가능,,,,가능,완비,
보테가베네타 현대 대구점,41936,,,대구광역시 중구 달구벌대로 2077,35.8666702733,128.5906548560,-,053-245-2116,,"가죽 제품 및 가방,신발,여성의류",,월~일요일,,10:30~20:00,명절,"이용환급창구 운영사업자 : 글로벌텍스프리(GTF), 환급서비스 제공방식 : 사후",가능,,,,가능,완비,
발렌시아가 현대 대구점,41936,,,대구광역시 중구 달구벌대로 2077 2층,35.8666702733,128.5906548560,-,053-245-2215,,"가죽 제품 및 가방,신발,여성의류",,월~일요일,,10:30~20:00,명절,"이용환급창구 운영사업자 : 글로벌텍스프리(GTF), 환급서비스 제공방식 : 사후",가능,,,,가능,완비,
구구스 대구점,41953,,,대구광역시 중구 동덕로6길 26-18,35.8561800759,128.6059149144,-,,,"가죽 제품 및 가방,기타 패션 및 의류,남성의류,시계,신발,여성의류",,월~토요일,,11:00~20:00,,"이용환급창구 운영사업자 : 글로벌블루, 환급서비스 제공방식 : 즉시+사후",불가능,,,,가능,,
구구스 현대 대구점,41936,,,대구광역시 중구 남성로 32,35.8676284923,128.5903270803,-,053-290-6563,,"가죽 제품 및 가방,시계,여성의류",,월~토요일,,11:00~20:00,명절,"이용환급창구 운영사업자 : 글로벌텍스프리(GTF), 환급서비스 제공방식 : 사후",불가능,,,,가능,,
아이그너,41229,,,대구 동구 동부로149,35.8779835934,128.6292150324,-,053-661-6366,,"가죽 제품 및 가방,악세서리",,월~일요일,,11:00~20:00,"정기휴무일,명절","이용환급창구 운영사업자 : 글로벌텍스프리(GTF), 환급서비스 제공방식 : 사후",가능,,,,가능,완비,
맨온드분,41229,,,대구 동구 동부로149,35.8779835934,128.6292150324,-,053-661-6219,,"남성의류,보석(장신구),신발,악세서리,안경",,월~일요일,,11:00~20:00,"정기휴무일,명절","이용환급창구 운영사업자 : 글로벌텍스프리(GTF), 환급서비스 제공방식 : 사후",가능,,,,가능,완비,
탑텐 동성로2호,41942,,,대구광역시 중구 동성로1길 29-40(삼덕동1가),35.8676813608,128.5955321753,-,053-427-0747,,기타 패션 및 의류,,월~일요일,,11:00~21:30,,"이용환급창구 운영사업자 : 글로벌텍스프리(GTF), 환급서비스 제공방식 : 즉시+사후",불가능,,,,가능,,
갤럭시라이프스타일 현대 대구점,41936,,,대구광역시 중구 달구벌대로 2077,35.8666702733,128.5906548560,-,053-245-2546,,남성의류,,월~일요일,,10:30~20:00,명절,"이용환급창구 운영사업자 : 글로벌텍스프리(GTF), 환급서비스 제공방식 : 사후",가능,,,,가능,완비,
ER NC아울렛 엑스코,41518,,,대구광역시 북구 유통단지로14길 22,35.9052607128,128.6103881529,-,053-662-9000,,"가구 및 홈데코,가죽 제품 및 가방,기념품점,기타 패션 및 의류,남성의류,란제리(속옷),보석(장신구),스포츠 용품 및 의류,시계,신발,아동의류,악세서리,안경,여성의류,향수 및 화장품",,월~일요일,,10:30~21:00,"월1회, 명절","이용환급창구 운영사업자 : 글로벌텍스프리(GTF), 환급서비스 제공방식 : 즉시+사후",가능,,,,가능,완비,
유니클로 신매,42271,,,대구광역시 수성구 달구벌대로 3257유니클로,35.8382090796,128.7125449172,-,053-795-8205,,"가죽 제품 및 가방,남성의류,란제리(속옷),스포츠 용품 및 의류,신발,아동의류,악세서리,여성의류,기타 소매",,월~일요일,,11:30~20:30,,"이용환급창구 운영사업자 : 글로벌텍스프리(GTF), 환급서비스 제공방식 : 사후",가능,,,,가능,완비,
올리브영 대구대현,41570,,,"대구광역시 북구 신암로 111강남메디컬타워106,107호",35.8808773798,128.6113137507,-,,,"기타 패션 및 의류,보석(장신구),식료품,향수 및 화장품",,월~일요일,,10:00~22:00,,"이용환급창구 운영사업자 : 글로벌텍스프리(GTF), 환급서비스 제공방식 : 사후",불가능,,,,가능,완비,
몽블랑 현대 대구점,41936,,,대구광역시 중구 달구벌대로 2077,35.8666702733,128.5906548560,-,053-245-2220,,"시계,기타 소매",,월~일요일,,10:30~20:00,명절,"이용환급창구 운영사업자 : 글로벌텍스프리(GTF), 환급서비스 제공방식 : 즉시+사후",가능,,,,가능,완비,
정일품 동성로,41912,,,대구광역시 중구 동성로 72정일품,35.8731835254,128.5960819735,-,053-356-6954,,보석(장신구),,월~일요일,,10:30~19:30,명절,"이용환급창구 운영사업자 : 글로벌텍스프리(GTF), 환급서비스 제공방식 : 사후",불가능,,,,가능,완비,
엘지베스트샵 침산점,41586,,,대구광역시 북구 침산로 76,35.8830323097,128.5905988497,-,,,전자제품,,월~일요일,,10:30~20:30,,"이용환급창구 운영사업자 : 글로벌블루, 환급서비스 제공방식 : 사후",가능,,,,가능,완비,
휠라 대구동성로1호,41942,,,"대구광역시 중구 동성로1길 29-251,2층",35.8676369157,128.5952210931,-,041-640-5027,,"스포츠 용품 및 의류,신발",,월~일요일,,11:00~21:00,명절,"이용환급창구 운영사업자 : 글로벌텍스프리(GTF), 환급서비스 제공방식 : 즉시+사후",불가능,,,,가능,,
비너스,41936,,,대구 중구 달구벌대로2077,35.8666702733,128.5906548560,-,053-245-2233,,란제리(속옷),,월~일요일,,10:30~20:00,명절,"이용환급창구 운영사업자 : 글로벌텍스프리(GTF), 환급서비스 제공방식 : 즉시+사후",가능,,,,가능,완비,
스톤헨지 현대 대구점,41936,,,대구광역시 중구 달구벌대로 2077,35.8666702733,128.5906548560,-,053-245-2160,,보석(장신구),,월~일요일,,10:30~20:00,명절,"이용환급창구 운영사업자 : 글로벌텍스프리(GTF), 환급서비스 제공방식 : 사후",가능,,,,가능,완비,
핫트랙스 대구점,41937,,,대구광역시 중구 국채보상로 586,35.8706365687,128.5948404879,-,053-425-9961,,"가든 및 DIY,기념품점,전자제품",,월~일요일,,09:30~22:00,명절,"이용환급창구 운영사업자 : 글로벌블루, 환급서비스 제공방식 : 즉시+사후",가능,,,,가능,완비,
유니클로 대구대천,42760,,,대구광역시 달서구 진천로 113,35.8184550156,128.5215483926,-,,,"기타 패션 및 의류,남성의류,란제리(속옷),신발,아동의류,여성의류",,월~일요일,,11:30~20:30,,"이용환급창구 운영사업자 : 글로벌텍스프리(GTF), 환급서비스 제공방식 : 즉시+사후",가능,,,,가능,완비,
유니클로 신세계대구,41229,,,"대구광역시 동구 효신로 88(신암동, 파미에타운)",35.8797195824,128.6332146318,-,053-661-1762,,"가죽 제품 및 가방,남성의류,란제리(속옷),스포츠 용품 및 의류,신발,아동의류,여성의류",,월~일요일,,11:00~20:00,"정기휴무일,명절","이용환급창구 운영사업자 : 글로벌텍스프리(GTF), 환급서비스 제공방식 : 사후",가능,,,,가능,완비,
홈플러스스토어즈 내당,41863,,,대구광역시 서구 달구벌대로 1821 (내당동),35.8602010674,128.5638407313,-,053-567-2080,,"가구 및 홈데코,가죽 제품 및 가방,기타 패션 및 의류,남성의류,란제리(속옷),스포츠 용품 및 의류,식료품,신발,아동의류,악세서리,안경,여성의류,전자제품,향수 및 화장품",,월~일요일,,10:00~24:00,"2,4주 일요일","이용환급창구 운영사업자 : 글로벌텍스프리(GTF), 환급서비스 제공방식 : 즉시",가능,,,,가능,완비,
ABC마트 대구동성로점,41942,,,대구광역시 중구 동성로1길 25,35.8669147692,128.5949294724,-,053-426-5989,,"남성의류,신발",,월~일요일,,11:00~22:00,,"이용환급창구 운영사업자 : 글로벌텍스프리(GTF), 환급서비스 제공방식 : 사후",불가능,,,,가능,,
ABC마트 이시아폴리스점,41026,,,대구광역시 동구 팔공로49길 16,35.9215899181,128.6373908727,-,,,신발,,월~일요일,,11:00~21:00,명절,"이용환급창구 운영사업자 : 글로벌블루, 환급서비스 제공방식 : 사후",가능,,,,가능,완비,
폴햄 이시아폴리스,41026,,,대구광역시 동구 팔공로49길 16 (봉무동),35.9215899181,128.6373908727,-,,,"가죽 제품 및 가방,기타 패션 및 의류,남성의류,신발,아동의류,여성의류",,월~일요일,,11:00~21:00,명절,"이용환급창구 운영사업자 : 글로벌텍스프리(GTF), 환급서비스 제공방식 : 사후",가능,,,,가능,완비,
토니모리 대구반월당,41957,,,대구광역시 중구 달구벌대로 지하 2100,35.8644705727,128.5933602338,-,053-252-0311,,향수 및 화장품,,월~일요일,,10:00~21:00,명절,"이용환급창구 운영사업자 : 글로벌텍스프리(GTF), 환급서비스 제공방식 : 즉시+사후",불가능,,,,가능,완비,
JD스포츠 동성로중앙,41941,,,대구광역시 중구 동성로5길 37,35.8678313654,128.5967487309,-,053-255-2809,,"기타 패션 및 의류,스포츠 용품 및 의류",,월~일요일,,11:00~22:00,,"이용환급창구 운영사업자 : 글로벌텍스프리(GTF), 환급서비스 제공방식 : 즉시+사후",불가능,,,,가능,,
올리브영 경북대,41544,,,대구광역시 북구 산격동 1341-1,35.8930204151,128.6094441326,-,053-939-5290,,향수 및 화장품,,월~일요일,,10:30~20:30,,"이용환급창구 운영사업자 : 글로벌텍스프리(GTF), 환급서비스 제공방식 : 사후",불가능,,,,가능,,
명보시계 롤렉스 신세계대구,41229,,,"대구광역시 동구 동부로 149, 1층",35.8779835934,128.6292150324,-,,,시계,,월~일요일,,11:00~20:00,명절,"이용환급창구 운영사업자 : 글로벌텍스프리(GTF), 환급서비스 제공방식 : 사후",가능,,,,가능,완비,
홈플러스 성서,42637,,,대구광역시 달서구 달구벌대로 1467 (용산동),35.8494960542,128.5274331248,-,,,"가구 및 홈데코,가든 및 DIY,가죽 제품 및 가방,기타 패션 및 의류,남성의류,란제리(속옷),보석(장신구),스포츠 용품 및 의류,시계,식료품,신발,아동의류,악세서리,안경,여성의류,전자제품,향수 및 화장품",,월~일요일,,10:00~24:00,"2,4주 일요일","이용환급창구 운영사업자 : 글로벌텍스프리(GTF), 환급서비스 제공방식 : 사후",가능,,,,가능,완비,
KK대구본점(금강_금강제화),41938,,,대구광역시 중구 동성로 32금강제화,35.8696033696,128.5957848772,-,053-422-7717,,"가죽 제품 및 가방,신발",,월~일요일,,11:00~21:00,"명절, 신정","이용환급창구 운영사업자 : 글로벌텍스프리(GTF), 환급서비스 제공방식 : 사후",불가능,,,,가능,,
SI 갭키즈 신세계대구,41229,,,대구광역시 동구 동부로 149,35.8779835934,128.6292150324,-,053-661-6703,,"아동의류,악세서리",,월~일요일,,11:00~20:00,"정기휴무일,명절","이용환급창구 운영사업자 : 글로벌텍스프리(GTF), 환급서비스 제공방식 : 사후",가능,,,,가능,완비,
대현 주크 이시아폴리스,41026,,,대구광역시 동구 팔공로49길 16 (봉무동) 이시아폴리스센터,35.9215899181,128.6373908727,-,,,"가죽 제품 및 가방,기타 패션 및 의류,여성의류",,월~일요일,,11:00~21:00,명절,"이용환급창구 운영사업자 : 글로벌텍스프리(GTF), 환급서비스 제공방식 : 사후",가능,,,,가능,완비,
에메필 대구1호,41941,,,대구시 중구 동성로5길 53 (삼덕동1가) 1층,35.8676730648,128.5975486651,-,,,란제리(속옷),,월~일요일,,11:00~22:30,,"이용환급창구 운영사업자 : 글로벌텍스프리(GTF), 환급서비스 제공방식 : 즉시+사후",불가능,,,,가능,,
비비안 이시아폴리스,41026,,,대구광역시 동구 팔공로49길 16롯데아울렛2F,35.9215899181,128.6373908727,-,053-945-2652,,란제리(속옷),,월~일요일,,11:00~21:00,명절,"이용환급창구 운영사업자 : 글로벌텍스프리(GTF), 환급서비스 제공방식 : 즉시+사후",가능,,,,가능,완비,
입생로랑 롯데 대구점,41581,,,대구광역시 북구 태평로 161,35.8759276605,128.5961541136,-,053-660-3180,,가죽 제품 및 가방,,월~일요일,,10:30~20:00,"월1회, 명절","이용환급창구 운영사업자 : 글로벌텍스프리(GTF), 환급서비스 제공방식 : 사후",가능,,,,가능,완비,
블랙야크,41026,,,대구광역시 동구 팔공로49길 16,35.9215899181,128.6373908727,-,053-945-2608,,스포츠 용품 및 의류,,월~일요일,,11:00~21:00,명절,"이용환급창구 운영사업자 : 글로벌텍스프리(GTF), 환급서비스 제공방식 : 사후",불가능,,,,가능,완비,
락포트,41026,,,대구광역시 동구 팔공로49길 16,35.9215899181,128.6373908727,-,053-945-2598,,신발,,월~일요일,,11:00~21:00,명절,"이용환급창구 운영사업자 : 글로벌텍스프리(GTF), 환급서비스 제공방식 : 사후",가능,,,,가능,완비,
현대시티아울렛 대구,41250,,,대구광역시 동구 동대구로 454,35.8707732498,128.6265710218,-,053-430-2620,,"기타 패션 및 의류,스포츠 용품 및 의류,여성의류",,월~일요일,,10:30~21:00,명절,"이용환급창구 운영사업자 : 글로벌텍스프리(GTF), 환급서비스 제공방식 : 사후",가능,,,,가능,완비,
코오롱 헨리코튼 이시아폴리스,41026,,,대구광역시 동구 팔공로49길 16,35.9215899181,128.6373908727,-,,,"기타 패션 및 의류,남성의류",,월~일요일,,11:00~21:00,명절,"이용환급창구 운영사업자 : 글로벌텍스프리(GTF), 환급서비스 제공방식 : 사후",가능,,,,가능,완비,
이마트 만촌,42037,,,대구광역시 수성구 동원로 136 (만촌동),35.8712039531,128.6372172943,-,010-3813-3990,,"가구 및 홈데코,가든 및 DIY,가죽 제품 및 가방,기타 패션 및 의류,남성의류,란제리(속옷),보석(장신구),스포츠 용품 및 의류,시계,식료품,신발,아동의류,악세서리,안경,여성의류,전자제품,향수 및 화장품,기타 소매",,월~일요일,,10:00~23:00,"2,4주 일요일","이용환급창구 운영사업자 : 글로벌텍스프리(GTF), 환급서비스 제공방식 : 즉시+사후",가능,,,,가능,완비,
아트박스 대구중앙,41937,,,대구광역시 중구 동성로 39,35.8705338128,128.5954015515,-,053-253-0097,,"기념품점,악세서리,향수 및 화장품",,월~일요일,,11:00~21:00,명절,"이용환급창구 운영사업자 : 글로벌텍스프리(GTF), 환급서비스 제공방식 : 즉시+사후",불가능,,,,가능,,
테그호이어,41581,,,대구 북구 태평로161,35.8759276605,128.5961541136,-,053-660-3111,,시계,,월~일요일,,10:30~20:00,"월1회, 명절","이용환급창구 운영사업자 : 글로벌블루, 환급서비스 제공방식 : 사후",가능,,,,가능,완비,
한섬 팩토리아울렛 대구,42936,,,대구광역시 달성군 가창면 가창로 1003,35.7950734849,128.6267758872,-,010-6775-7116,,"기타 패션 및 의류,남성의류,신발,악세서리,여성의류",,월~일요일,,10:30~20:30,명절,"이용환급창구 운영사업자 : 글로벌블루, 환급서비스 제공방식 : 사후",가능,,,,가능,완비,
롯데 대구봉무(시스템),41026,,,대구광역시 동구 팔공로49길 16,35.9215899181,128.6373908727,-,,,"가죽 제품 및 가방,기타 패션 및 의류,신발,여성의류",,금~수요일,,11:00~21:00,명절,"이용환급창구 운영사업자 : 글로벌텍스프리(GTF), 환급서비스 제공방식 : 사후",가능,,,,가능,완비,
리바이스 롯데아울렛 이시아폴리스,41026,,,대구광역시 동구 팔공로49길 16,35.9215899181,128.6373908727,-,053-945-2561,,남성의류,,월~일요일,,11:00~21:00,명절,"이용환급창구 운영사업자 : 글로벌텍스프리(GTF), 환급서비스 제공방식 : 즉시+사후",가능,,,,가능,완비,
마이클코어스 현대 대구점,41936,,,대구광역시 중구 달구벌대로 2077 2층,35.8666702733,128.5906548560,-,053-245-2244,,"가죽 제품 및 가방,여성의류",,월~일요일,,10:30~20:00,명절,"이용환급창구 운영사업자 : 글로벌텍스프리(GTF), 환급서비스 제공방식 : 즉시+사후",가능,,,,가능,완비,
해지스,41581,,,대구 북구 태평로 161,35.8759276605,128.5961541136,-,053-660-3634,,남성의류,,월~일요일,,10:30~20:00,"월1회, 명절","이용환급창구 운영사업자 : 글로벌텍스프리(GTF), 환급서비스 제공방식 : 사후",가능,,,,가능,완비,
시슬리 이시아폴리스,41026,,,대구광역시 동구 팔공로49길 16 이시아폴리스 1층,35.9215899181,128.6373908727,-,053-945-2586,,"가죽 제품 및 가방,여성의류",,월~일요일,,11:00~21:00,명절,"이용환급창구 운영사업자 : 글로벌텍스프리(GTF), 환급서비스 제공방식 : 사후",가능,,,,가능,완비,
세인트제임스 동성로,41943,,,"대구광역시 중구 동성로 10, 1,2층(동성로3가)",35.8668564291,128.5941906503,-,053-428-4628,,"기타 패션 및 의류,남성의류,아동의류,여성의류",,월~일요일,,11:00~21:00,명절,"이용환급창구 운영사업자 : 글로벌텍스프리(GTF), 환급서비스 제공방식 : 사후",불가능,,,,가능,,
하이마트 만촌점,42037,,,대구광역시 수성구 화랑로 114,35.8729482416,128.6394531602,-,053-756-8710,,전자제품,,월~일요일,,10:30~20:30,,"이용환급창구 운영사업자 : 글로벌텍스프리(GTF), 환급서비스 제공방식 : 즉시+사후",가능,,,,가능,완비,
에이케이골프 이시아폴리스,41026,,,대구광역시 동구 팔공로49길 162층AK골프코너,35.9215899181,128.6373908727,-,,,"기타 패션 및 의류,스포츠 용품 및 의류,신발",,월~일요일,,11:00~21:00,명절,"이용환급창구 운영사업자 : 글로벌텍스프리(GTF), 환급서비스 제공방식 : 사후",가능,,,,가능,완비,
대현 듀엘 이시아폴리스,41026,,,대구광역시 동구 팔공로49길 16이시아폴리스대현관,35.9215899181,128.6373908727,-,,,"기타 패션 및 의류,신발,여성의류",,월~일요일,,11:00~21:00,명절,"이용환급창구 운영사업자 : 글로벌텍스프리(GTF), 환급서비스 제공방식 : 사후",가능,,,,가능,완비,
골든듀 신세계대구,41229,,,대구광역시 동구 동부로 149,35.8779835934,128.6292150324,-,053-661-1814,,기타 소매,,월~일요일,,11:00~20:00,"정기휴무일,명절","이용환급창구 운영사업자 : 글로벌텍스프리(GTF), 환급서비스 제공방식 : 즉시+사후",가능,,,,가능,완비,
톰보이 이시아폴리스,41026,,,"대구광역시 동구 팔공로49길 16, 1층",35.9215899181,128.6373908727,-,,,"가죽 제품 및 가방,기타 패션 및 의류,신발,여성의류",,월~일요일,,11:00~21:00,명절,"이용환급창구 운영사업자 : 글로벌텍스프리(GTF), 환급서비스 제공방식 : 사후",가능,,,,가능,완비,
ER 동아 강북,41438,,,대구광역시 북구 칠곡중앙대로 416,35.9330314345,128.5490400091,-,053-320-3300,,"가든 및 DIY,가죽 제품 및 가방,기념품점,기타 패션 및 의류,남성의류,란제리(속옷),보석(장신구),스포츠 용품 및 의류,시계,식료품,신발,아동의류,악세서리,안경,여성의류,향수 및 화장품,기타 소매",,월~일요일,,10:30~21:00,명절,"이용환급창구 운영사업자 : 글로벌텍스프리(GTF), 환급서비스 제공방식 : 사후",가능,,,,가능,완비,
오일릴리 롯데아울렛 이시아폴리스점,41026,,,대구광역시 동구 팔공로49길 16,35.9215899181,128.6373908727,-,,,"가죽 제품 및 가방,기타 패션 및 의류,여성의류",,월~일요일,,11:00~21:00,명절,"이용환급창구 운영사업자 : 글로벌텍스프리(GTF), 환급서비스 제공방식 : 사후",가능,,,,가능,완비,
버버리 신세계 대구점,41243,,,대구광역시 동구 동부로30길 12,35.8762587778,128.6286151334,-,053-661-6447,,"가죽 제품 및 가방,기타 패션 및 의류,남성의류,신발,여성의류",,월~일요일,,11:00~20:00,"정기휴무일,명절","이용환급창구 운영사업자 : 글로벌텍스프리(GTF), 환급서비스 제공방식 : 사후",가능,,,,가능,완비,
오메가 현대 대구점,41936,,,대구광역시 중구 달구벌대로 2077 2층,35.8666702733,128.5906548560,-,053-245-2249,,"보석(장신구),시계",,월~일요일,,10:30~20:00,명절,"이용환급창구 운영사업자 : 글로벌텍스프리(GTF), 환급서비스 제공방식 : 사후",가능,,,,가능,완비,
오메가 신세계 대구점,41229,,,대구광역시 동구 동부로 149 1층,35.8779835934,128.6292150324,-,,,시계,,월~일요일,,11:00~20:00,명절,"이용환급창구 운영사업자 : 글로벌텍스프리(GTF), 환급서비스 제공방식 : 즉시+사후",가능,,,,가능,완비,
발렌티노 신세계 대구점,41229,,,대구광역시 동구 동부로 149,35.8779835934,128.6292150324,-,053-661-6474,,"가죽 제품 및 가방,신발,여성의류",,월~일요일,,11:00~20:00,"정기휴무일,명절","이용환급창구 운영사업자 : 글로벌텍스프리(GTF), 환급서비스 제공방식 : 사후",가능,,,,가능,완비,
코스 신세계 대구잠,41229,,,대구광역시 동구 동부로 149,35.8779835934,128.6292150324,-,053-661-6432,,"란제리(속옷),신발,악세서리,여성의류",,월~일요일,,11:00~20:00,"정기휴무일,명절","이용환급창구 운영사업자 : 글로벌텍스프리(GTF), 환급서비스 제공방식 : 사후",가능,,,,가능,완비,
페레가모 신세계 대구점,41229,,,대구광역시 동구 동부로 149,35.8779835934,128.6292150324,-,053-6616-4655,,"가죽 제품 및 가방,신발,악세서리,향수 및 화장품",,월~일요일,,11:00~20:00,"정기휴무일,명절","이용환급창구 운영사업자 : 글로벌블루, 환급서비스 제공방식 : 사후",가능,,,,가능,완비,
다이아미 신세계백화점 대구점,41229,,,대구광역시 동구 동부로 149,35.8779835934,128.6292150324,-,053-661-1817,,기타 소매,,월~일요일,,11:00~20:00,"정기휴무일,명절","이용환급창구 운영사업자 : 글로벌텍스프리(GTF), 환급서비스 제공방식 : 사후",가능,,,,가능,완비,
빈폴 신세계 대구점,41229,,,대구광역시 동구 동부로 149,35.8779835934,128.6292150324,-,053-661-6596,,"가죽 제품 및 가방,기타 패션 및 의류,남성의류,신발",,월~일요일,,11:00~20:00,"정기휴무일,명절","이용환급창구 운영사업자 : 글로벌텍스프리(GTF), 환급서비스 제공방식 : 즉시+사후",가능,,,,가능,완비,
갤럭시라이프스타일 신세계 대구점,41229,,,대구광역시 동구 동부로 149,35.8779835934,128.6292150324,-,053-661-6226,,"기타 패션 및 의류,남성의류,신발",,월~일요일,,11:00~20:00,"정기휴무일,명절","이용환급창구 운영사업자 : 글로벌텍스프리(GTF), 환급서비스 제공방식 : 사후",가능,,,,가능,완비,
반클리프아펠 신세계 대구점,41229,,,대구광역시 동구 동부로 149,35.8779835934,128.6292150324,-,053-661-6494,,"보석(장신구),시계",,월~일요일,,11:00~20:00,"정기휴무일,명절","이용환급창구 운영사업자 : 글로벌텍스프리(GTF), 환급서비스 제공방식 : 사후",가능,,,,가능,완비,
모다아울렛 대구점,42714,,,대구광역시 달서구 달서대로 411,35.8358747119,128.4913950113,-,053-589-6000,,"가죽 제품 및 가방,기타 패션 및 의류,남성의류,란제리(속옷),신발,여성의류",,월~일요일,,11:00~21:00,,"이용환급창구 운영사업자 : KICC(이지택스리펀드), 환급서비스 제공방식 : 사후",가능,,,,가능,완비,
보테가베네타 신세계 대구점,41229,,,대구광역시 동구 동부로 149 5층,35.8779835934,128.6292150324,-,,,"가죽 제품 및 가방,기타 패션 및 의류,남성의류,여성의류",,월~일요일,,11:00~20:00,명절,"이용환급창구 운영사업자 : 글로벌블루, 환급서비스 제공방식 : 사후",가능,,,,가능,완비,
프레드 신세계 대구점,41229,,,대구광역시 동구 동부로 149,35.8779835934,128.6292150324,-,,,악세서리,,월~일요일,,11:00~20:00,명절,"이용환급창구 운영사업자 : 글로벌블루, 환급서비스 제공방식 : 사후",가능,,,,가능,완비,
에잇세컨즈 동성로2가점,41938,,,대구광역시 중구 동성로 34,35.8699088909,128.5957987562,-,010-2669-2444,,향수 및 화장품,,월~일요일,,10:30~21:00,명절,"이용환급창구 운영사업자 : 글로벌텍스프리(GTF), 환급서비스 제공방식 : 즉시+사후",가능,,,,가능,완비,
ABC마트 대구동성로2가점,41938,,,대구광역시 중구 동성로 40,35.8703949477,128.5958376290,-,053-719-0171,,"기타 패션 및 의류,신발",,월~일요일,,11:00~22:00,,"이용환급창구 운영사업자 : 글로벌텍스프리(GTF), 환급서비스 제공방식 : 즉시+사후",불가능,,,,가능,,
스페이스M 현대아울렛 대구점,41250,,,대구광역시 동구 동대구로 454,35.8707732498,128.6265710218,-,053-430-2127,,"가죽 제품 및 가방,기타 패션 및 의류,남성의류,신발,여성의류",,월~일요일,,10:30~21:00,명절,"이용환급창구 운영사업자 : 글로벌블루, 환급서비스 제공방식 : 사후",가능,,,,가능,완비,
불가리 신세계 대구점,41229,,,대구광역시 동구 동부로 149,35.8779835934,128.6292150324,-,053-661-6498,,"시계,향수 및 화장품,기타 소매",,월~일요일,,11:00~20:00,"정기휴무일,명절","이용환급창구 운영사업자 : 글로벌텍스프리(GTF), 환급서비스 제공방식 : 사후",가능,,,,가능,완비,
디올 신세계 대구점,41229,,,대구광역시 동구 동부로 149 5층,35.8779835934,128.6292150324,-,,,"가죽 제품 및 가방,남성의류,시계,신발,여성의류",,월~일요일,,11:00~20:00,명절,"이용환급창구 운영사업자 : 글로벌텍스프리(GTF), 환급서비스 제공방식 : 즉시+사후",가능,,,,가능,완비,
네스프레소 현대 대구점,41936,,,대구광역시 중구 달구벌대로 2077 2층,35.8666702733,128.5906548560,-,053-245-2246,,기타 소매,,월~일요일,,10:30~20:00,명절,"이용환급창구 운영사업자 : 글로벌텍스프리(GTF), 환급서비스 제공방식 : 즉시+사후",가능,,,,가능,완비,
EW 폴더 동성로삼덕,41942,,,"대구광역시 중구 동성로1길 15,1층",35.8670508606,128.5946739350,-,053-252-7716,,"가죽 제품 및 가방,스포츠 용품 및 의류,신발",,월~일요일,,10:30~22:00,,"이용환급창구 운영사업자 : 글로벌텍스프리(GTF), 환급서비스 제공방식 : 즉시+사후",불가능,,,,가능,완비,
토니모리 동성로,41937,,,"대구광역시 중구 동성로 3784-6,85-4",35.8701616347,128.5955071084,-,02-6226-2256,,향수 및 화장품,,월~일요일,,10:00~22:00,,"이용환급창구 운영사업자 : 글로벌텍스프리(GTF), 환급서비스 제공방식 : 즉시+사후",불가능,,,,가능,,
MUJI 신세계대구,41229,,,"대구광역시 동구 효신로 88, 6층 (신암동, 신세계백화점 대구 파미에타운)",35.8797195824,128.6332146318,-,053-661-1764,,"가구 및 홈데코,기타 패션 및 의류,남성의류,란제리(속옷),시계,신발,여성의류,전자제품,향수 및 화장품,기타 소매",,월~일요일,,11:00~20:00,"정기휴무일,명절","이용환급창구 운영사업자 : 글로벌텍스프리(GTF), 환급서비스 제공방식 : 사후",가능,,,,가능,완비,
LM대구성서(금강_레스모아),42714,,,대구광역시 달서구 달서대로85길 8,35.8374772998,128.4909200091,-,053-591-6960,,"신발,기타 소매",,월~일요일,,10:30~21:00,명절,"이용환급창구 운영사업자 : 글로벌텍스프리(GTF), 환급서비스 제공방식 : 사후",가능,,,,가능,,
홈플러스스토어즈 동촌,41144,,,대구광역시 동구 동촌로 127 (검사동),35.8862164843,128.6556846933,-,053-945-2606,,"가구 및 홈데코,가든 및 DIY,가죽 제품 및 가방,기타 패션 및 의류,남성의류,란제리(속옷),스포츠 용품 및 의류,식료품,신발,아동의류,악세서리,안경,여성의류,전자제품,향수 및 화장품",,월~일요일,,10:00~23:00,월1회 일요일,"이용환급창구 운영사업자 : 글로벌텍스프리(GTF), 환급서비스 제공방식 : 사후",가능,,,,가능,완비,
아트박스 대구동성로,41941,,,대구광역시 중구 동성로5길 21 (삼덕동1가),35.8680452123,128.5957793654,-,053-253-3385,,"가죽 제품 및 가방,기념품점,기타 패션 및 의류,보석(장신구),식료품,악세서리,향수 및 화장품,기타 소매",,월~일요일,,11:00~22:30,,"이용환급창구 운영사업자 : 글로벌텍스프리(GTF), 환급서비스 제공방식 : 사후",불가능,,,,가능,,
올리브영 수성구청역,42088,,,대구광역시 수성구 달구벌대로 2518,35.8585470675,128.6380342420,-,053-741-1851,,향수 및 화장품,,월~일요일,,10:00~20:30,,"이용환급창구 운영사업자 : 글로벌텍스프리(GTF), 환급서비스 제공방식 : 사후",불가능,,,,가능,,
ER 슈펜 동성로,41938,,,대구광역시 중구 동성로 36,35.8701838606,128.5958431890,-,053-325-2683,,"가죽 제품 및 가방,신발",,월~일요일,,10:30~22:00,,"이용환급창구 운영사업자 : 글로벌텍스프리(GTF), 환급서비스 제공방식 : 즉시+사후",불가능,,,,가능,,
현대백화점 대구,41936,,,대구광역시 중구 달구벌대로 2077 (계산동2가) 현대백화점,35.8666702733,128.5906548560,-,,,"가구 및 홈데코,가든 및 DIY,가죽 제품 및 가방,기타 패션 및 의류,남성의류,란제리(속옷),보석(장신구),스포츠 용품 및 의류,시계,식료품,신발,아동의류,악세서리,안경,여성의류,전자제품,향수 및 화장품",,월~일요일,,10:30~20:00,"월1회 월요일, 명절","이용환급창구 운영사업자 : 글로벌텍스프리(GTF), 환급서비스 제공방식 : 즉시+사후",가능,,,,가능,완비,
MUJI 롯데대구,41581,,,대구광역시 북구 태평로 161롯데백화점대구B2,35.8759276605,128.5961541136,-,053-660-2770,,"기타 패션 및 의류,남성의류,신발,여성의류",,월~일요일,,10:30~20:00,"월1회, 명절","이용환급창구 운영사업자 : 글로벌텍스프리(GTF), 환급서비스 제공방식 : 사후",가능,,,,가능,완비,
루이비통 신세계대구,41229,,,대구광역시 동구 동부로 1495층,35.8779835934,128.6292150324,-,,,"가죽 제품 및 가방,기타 패션 및 의류,남성의류,신발,여성의류",,월~일요일,,11:00~20:00,명절,"이용환급창구 운영사업자 : 글로벌텍스프리(GTF), 환급서비스 제공방식 : 즉시+사후",가능,,,,가능,완비,
올리브영 대구수성4가,42007,,,"대구광역시 수성구 달구벌대로 2297, 1층",35.8600742244,128.6137585591,-,053-752-5290,,"향수 및 화장품,기타 소매",,월~일요일,,10:00~22:30,명절,"이용환급창구 운영사업자 : 글로벌텍스프리(GTF), 환급서비스 제공방식 : 사후",가능,,,,가능,,
ER 동아 수성,42198,,,대구광역시 수성구 지범로 191,35.8211152351,128.6403850769,-,053-780-2207,,"가구 및 홈데코,가죽 제품 및 가방,기타 패션 및 의류,남성의류,란제리(속옷),보석(장신구),스포츠 용품 및 의류,시계,식료품,신발,아동의류,악세서리,안경,여성의류,전자제품,향수 및 화장품",,월~일요일,,10:00~21:00,명절,"이용환급창구 운영사업자 : 글로벌텍스프리(GTF), 환급서비스 제공방식 : 사후",가능,,,,가능,완비,
나이키 대구,41026,,,대구광역시 동구 팔공로49길 161층116~118호,35.9215899181,128.6373908727,-,053-945-2707,,신발,,월~일요일,,11:00~21:00,명절,"이용환급창구 운영사업자 : 글로벌텍스프리(GTF), 환급서비스 제공방식 : 즉시+사후",가능,,,,가능,완비,
원더플레이스 대구동성로,41941,,,대구광역시 중구 동성로5길 25,35.8680452178,128.5960765614,-,053-716-2011,,기타 패션 및 의류,,월~일요일,,11:30~22:00,,"이용환급창구 운영사업자 : 글로벌텍스프리(GTF), 환급서비스 제공방식 : 즉시",불가능,,,,가능,,
칼하트WIP 대구동성로,41942,,,대구광역시 중구 동성로1길 29-31(동성로3가),35.8678035633,128.5952377540,-,053-424-0922,,"남성의류,여성의류",,월~일요일,,12:00~21:00,,"이용환급창구 운영사업자 : 글로벌텍스프리(GTF), 환급서비스 제공방식 : 사후",불가능,,,,가능,,
쇼메 현대대구,41936,,,"대구광역시 중구 달구벌대로 2077, 1층",35.8666702733,128.5906548560,-,,,"보석(장신구),시계",,월~일요일,,10:30~20:00,"월1회 월요일, 명절","이용환급창구 운영사업자 : 글로벌텍스프리(GTF), 환급서비스 제공방식 : 사후",가능,,,,가능,완비,
올리브영 대구중앙로,41937,,,대구광역시 중구 중앙대로 388,35.8677229900,128.5937934388,-,053-2523-4428,,향수 및 화장품,,월~일요일,,10:00~22:00,,"이용환급창구 운영사업자 : 글로벌텍스프리(GTF), 환급서비스 제공방식 : 즉시+사후",불가능,,,,가능,,
유니클로 롯데봉무,41026,,,대구광역시 동구 팔공로49길 16,35.9215899181,128.6373908727,-,,,"가죽 제품 및 가방,기타 패션 및 의류,남성의류,란제리(속옷),신발,아동의류,악세서리,여성의류",,월~일요일,,11:00~21:00,명절,"이용환급창구 운영사업자 : 글로벌텍스프리(GTF), 환급서비스 제공방식 : 사후",가능,,,,가능,완비,
대구 안지랑시장,42487,안지랑시장 번영회,053-652-6569,대구광역시 남구 대명로36길 19,35.8383454491,128.5769235188,"안지랑 오거리에서 앞산 안지랑골로 통하는 길 중간에 형성된 안지랑시장은 화려한 명성을 뒤로하고 최근 양념 곱창집이 들어차 새로운 활력이 되고 있다. 79년경 안지랑시장 쪽에 충북식당을 시작으로 ’98년 IMF 이후 생계유지 업소 늘어나기 시작 오의 안지랑 시장을 활성화시켰고, 서민들이 부담 없이 즐길 수 있는 휴식처이자 최근엔 젊은 층이 주도하는 젊음의 거리로 발전하게 되었다. 또한 07년도부터는 상가 활성화를 위하여 간판 개·보수 및 손 씻는 시설 설치 및 영업장 환경개선하여 재래시장의 활성화에 더욱 힘을 쓰고 있다.",053-652-6569,,건어물 / 수산물 / 농산물 외,,,1971년,09:00 ~ 22:00,,"안지랑 시장은 안지랑 곱창 골목으로 유명하다. 현재는 시장으로써의 역활 뿐만 아니라 각지역 
관광객들이 곱창을 맛보기 위해 이곳 안지랑 곱창 골목을 찾는다. (시장 안 곱창 
식당 참고)",,,없음,없음,가능,,