명칭,우편번호,관리자,전화번호,주소,위도,경도,개요,문의 및 안내,규모,좌석수,주차 시설,어린이놀이방,개업일,영업시간,쉬는날,대표메뉴,취급메뉴,할인정보,금연/흡연,신용카드정보,포장가능,예약안내,상세정보,인허가번호
실비찜갈비,41908,실비찜갈비,053-424-3443,대구광역시 중구 동덕로36길 9-3,35.8706756365,128.6047840550,"※ 영업시간 09:00 ~ 22:00

대구 동인동 찜갈비 골목에 위치한 곳으로 대구 특유의 매운맛이 살아있는 '양푼매운갈비'를 맛볼 수 있다. 마늘을 듬뿍 넣은 매운 찜갈비는 한약재를 넣고 찐 갈비를 마늘이 많이 들어간 매운 양념으로 볶아낸다.",053-424-3443,,,주차 가능(30대),0,1968년,09:00~22:00,연중무휴,찜갈비,찜갈비 / 소고기찌개 외,,모두 금연석,가능,가능(일부 메뉴),전화 예약 가능 (053-424-3443),"화장실:실내, 남녀공용

",20080158033
주홍산장식당,39066,주홍산장,054-382-8050,대구광역시 군위군 부계면 한티로 1672,36.0302303790,128.6371989557,경북 팔공산 주변 음식점 중 15년 넘는 전통의 오리요리 전문점이다. 물 좋고 공기 좋고 경관 좋은 팔공산 한티재 너머에 자리 잡은 이곳은 일단 도착하면 물레방아와 통나무 방갈로가 눈에 띈다. 예쁜 조경들 사이사이의 방갈로에서 오리고기를 맛볼 수 있다.,054-382-8050,,400석,주차 가능(50대),0,1994년 4월,00:00 ~ 24:00,명절연휴,오리구이,오리구이 / 오리주물럭 / 생삼겹 외,,모두 금연석,없음,가능,전화 054-382-8050,"부대시설:노래방, 무료숙박시설, 족구장
화장실:있음(실내, 실외, 남여분리)
",19950562002
군위이로운한우,39026,군위이로운한우,054-382-9800,대구광역시 군위군 효령면 간동유원지길 14,36.1784459060,128.5843883341,한우 직판매장으로 1층에서 직접 고기를 주문하여 2층 식당에서 기본 상차림비를 지불한 뒤 한우를 맛볼 수 있는 곳이다. 경북 군위에 위치하고 팔공산 경계를 접하여 물 좋고 공기 좋은 청정지역에서 한우를 직접 키우는 농가들이 영농조합 법인을 설립하여 암소와 거세우를 어린 송아지부터 키웠으며 한우를 직접 선별한 100% 1등급 한우이다.,054-382-9800,,,주차 가능,0,,10:00 ~ 21:00,명절연휴(전화문의),한우 구이 / 육회,한우 구이 / 육회 / 전골 / 불고기 / 냉면 외,,모두 금연석,가능,가능(일부 메뉴),전화 예약 가능 (054-382-9800),,20080562007
기러기농장가든,39038,기러기농장가든,054-382-6337,대구광역시 군위군 효령면 용매로 788,36.0847289836,128.5957788579,"경상북도 군위군에 위치한 기러기농장가든은 농림부에서 지정한 위해 요소 중점관리(HACCP)인증 사료만으로 사육하고 있으며, 손님들이 안심하고 맛있게 드실 수 있도록 최선을 다하고 있다.<br>",054-382-6337,,,주차 가능,0,,09:00 ~ 22:00,연중무휴,기러기요리,기러기요리 / 오리불고기 / 한방백숙 / 닭도리탕 외,,모두 금연석,가능,,전화 054-382-6337,,19990562056
다정옥,41920,옛날진지상,053-250-0988,대구광역시 중구 달성로22길 12,35.8746692238,128.5828330998,"다정옥 (구,옛날진지상) 은 천연식재료만을 사용하여 음식맛을 살려 담백하게 조리하고 있다.",053-250-0988,,180석 (룸 12실),주차 가능,0,2001-01-04,10:00 ~ 22:30 (전화문의),일요일 / 명절당일 (전화문의),한정식 코스요리,떡갈비 정식 / 돼지 불고기 정식 등,,모두 금연석,가능,,전화 예약 가능 (042-471-5544),"화장실:남녀개별 화장실
",20100158040
봉산찜갈비,41908,봉산찜갈비,053-425-4203,대구광역시 중구 동덕로36길 9-18,35.8712144710,128.6051395639,"63년부터 시작되어 온 동인동 찜갈비는 매운 맛으로 양은냄비에 담아내어 나오는 것이 특징이다. 이것이 입소문이 퍼지면서 100여 미터 길 양편에 지금의 ‘동인동 찜갈비골목’이 형성되었다. 다른 철제 용기에 비해 열전도율이 높은 양은냄비의 특성을 이용하여 조리된 찜갈비는, 쫄깃쫄깃한 육질과 온갖 양념이 어우러져 최고의 맛을 만들어 낸다. 대구의 향토음식으로 자리매김하여 전국에서 인기를 얻고 있으며, 외국인에게 대접하기에도 적당하다.",053-425-4203,,,주차 가능(20대),0,1972년 03월 01일,09:00 ~ 21:10(라스트오더 20:40),명절연휴(전화문의),찜갈비,찜갈비 / 한우찜갈비 / 갈비살찌개 외,,모두 금연석,가능,가능,전화 예약 가능 (053-425-4203),"화장실:남녀개별, 업소내 위치
",19910158098
동곡할매손칼국수,42903,동곡할매손칼국수,053-582-0278,대구광역시 달성군 하빈면 달구벌대로55길 104-4,35.8791101308,128.4176530958,동곡할매손칼국수는 대구광역시 달성군 하빈면에 위치한 칼국수 전문점이다. 30년 이상 명맥을 유지하며 꾸준하게 사랑받아온 점포로 중소벤처기업부 백년가게 인증을 받은 곳이다. 이곳의 국수는 다른 국수와 달리 일정 기간 적정 온도에서 숙성시킨 음식이라 면발이 쫄깃하고 잘 퍼지지 않으며 순수 원재료를 사용하여 향토음식의 맛을 그대로 느낄 수 있다. 또한 한국 전통문화보존회가 맛있는 음식으로 선정하였으며 할머니께서는 손국수 명인장이 되셨다.,053-582-0278,,,가능,0,,10:00~20:00,매월 첫째 주 월요일,손국수,손국수 / 수육 / 암뽕 등,,모두 금연석,가능,가능(일부 메뉴),전화 예약 가능 (053-582-0278),"화장실:남녀개별 / 업소 외부 위치
",19750188001
상주식당,41938,상주식당,053-425-5924,대구광역시 중구 국채보상로 598-1,35.8704060615,128.5960514978,"50년 넘게 추어탕 단일 메뉴를 대물림한 집, 대구에서 가장 오래된 추어탕집으로, 양식 미꾸라지를 사용하지 않기 때문에 미꾸라지가 잡히지 않는 12월 말경에서 2월 말경까지 문을 닫는다. 가족적인 분위기를 위하여 술은 팔지 않으며, 진하면서도 시원하고 담백한 국물 맛과 김치의 맛이 독특하다. 특히 사계절 물김치의 맛은 일품이다.",053-425-5924,,,,0,,10:00 ~ 19:00,12월 15일~3월 말,추어탕,추어탕,,모두 금연석,가능,가능(일부 메뉴),,,19700158011
대덕식당,42490,대덕식당,053-656-8111,대구광역시 남구 앞산순환로 443,35.8310378812,128.5735656841,"대덕식당은 30년 동안 선짓국만을 끓인 집이다. 사골을 진하게 우려낸 국물에 우거지, 마늘, 토란, 파, 양념을 넣고 삶은 선지를 넣어 푹 끓여 만든 선짓국은 진한 국물 맛과 얼큰하면서 개운한 맛이 일품이다.",053-656-8111,,,주차 가능,0,,평일 08:00 ~ 21:00 / 주말 07:00 ~ 21:00,연중무휴,선지 국밥 / 선지,선지 국밥 / 선지 / 육개장 / 왕갈비탕 외,,모두 금연석,가능,가능(일부 메뉴),전화 예약 가능 (053-656-8111),,19780166007
원조현풍박소선할매집곰탕,43005,원조현풍박소선할매집곰탕,053-615-1122,대구광역시 달성군 현풍중앙로 56-1 원조현풍할매집곰탕,35.6946259664,128.4458056961,"옛날에는 보양식으로 먹었던 곰탕, 이 곰탕의 명가로 꼽히는 곳이 박소선할매집곰탕이다. 박소선 할매가 처음으로 식당을 연 원조집이 바로 현풍면 하리에 있는 이 집이다. 1945년 박소선 할머니가 문을 연 이래 지금까지 60여 년간 대를 이어가며 곰탕만을 만들어 내고 있다. 지금은 박 할머니의 며느리인 안경순씨가 시집와 30여 년을 시어머니 밑에서 전수받은 비결로 음식을 만들어 내고 있다. 

곰탕이 달라야 얼마나 다르랴 하겠지만 진한 국물 맛에 쫄깃한 고기와 맛깔스러운 밑반찬이 누가 먹어도 입에 거슬리지 않는다. 뽀얗기보다는 약간은 노르스름한 색이 도는 국물에 밥을 말아 먹다 보면 입에 착 감기는 구수한 맛이 느껴진다. 고깃집이 아님에도 현풍 곰탕집은 대구의 도축장을 비롯해 경주, 포항, 고령 등 경북지역 곳곳을 돌며 엄선된 고기를 구입한다. 양념이 안 들어가는 곰탕은 원재료가 좋아야 하기 때문이다.",053-615-1122,,,주차 가능,0,,09:00 ~ 20:30,명절연휴,곰탕,곰탕 / 양곰탕 / 꼬리곰탕 외,,모두 금연석,가능,가능(일부 메뉴),전화 예약 가능 (053-615-1122),"화장실:남녀개별 / 업소 내부 위치
",19840188029
길목가든,42991,길목가든,053-615-7400,대구광역시 달성군 유가읍 휴양림길 207,35.6922134196,128.5043311685,비슬산자연휴양림 입구에 위치하고 있는 유황오리 전문식당이다. 비슬산 아래의 작은 마을 전체가 음식촌이다. 그곳에서도 오리에 관한한 가장 명성이 있는 식당이다. 마을에서는 가장 위쪽에 위치하고 휴양림 쪽에서는 첫 번째 집이 길목가든이다. 겉보기에는 일반 콘크리트 집이지만 내부는 황토방으로 꾸며져 있다. 이 집의 최고 요리는 유황오리 백숙이다. 7가지의 한약재를 넣고 3시간 여를 푹 고와 내놓는데 오리 특유의 느끼함과 기름기가 전혀 없이 담백하고 구수하다. 함께 나오는 야채도 밑반찬도 텃밭에서 직접 길러서 내놓는다고. 그리고 가벼운 식사를 원하는 사람들에게는 야채비빔밥을 목기에 담아 내놓는다.<br>,053-615-7400,,,주차 가능,0,,10:00 ~ 22:00,"토,일요일",유황오리 한방백숙,유황오리 한방백숙 / 유황오리 한방능이백숙 / 유황오리 훈제 / 유황오리 불고기 외,,모두 금연석,가능,가능,전화 예약 가능 (053-615-7400),"화장실:업소내 / 남녀개별 화장실
",20000188213
손복자 부산 할매낙지,41866,손복자 부산 할매낙지,053-554-9475,대구광역시 서구 달구벌대로 1789,35.8592011179,128.5604105051,"오랜 전통의 손복자 부산 할매낙지는 바다가 없는 대구에서 문을 연 최초의 낙지 전문점이다. 진한 국물 맛과 낙지의 쫄깃함을 느낄 수 있는 산낙지 전골, 산낙지회 등 산낙지 마니아들에겐 입소문이 자자하다.",053-554-9475,,,주차 가능,0,,11:00~22:00<br>라스트 오더 21:00,연중무휴,산낙지전골,산낙지전골 / 산낙지볶음 / 산낙지회 외,,모두 금연석,가능,가능(일부 메뉴),전화 예약 가능 (053-554-9475),,20000163084
동이식당,42829,동이식당,053-643-7799,대구광역시 달서구 한실로6길 165-7,35.7933330126,128.5300038982,"대구 달서구 대곡동에 있는 동이식당은 동이 정식(한정식)을 메뉴로 한다. 저렴한 가격에 안동 간고등어와 다양한 반찬이 제공되며, 안동 간고등어는 추가 주문이 가능하다.",053-643-7799,,,주차 가능,0,,10:30 ~ 21:00,매주 수요일,동이 정식(한정식),동이정식 / 막걸리 외,,모두 금연석,없음,,전화 예약 문의 (053-643-7799),,20070182244
부부식당,41114,부부식당,053-964-3117,대구광역시 동구 율하동로24길 31(신기동),35.8696609516,128.7057779677,"대구광역시 동구 신기동 반야월 시장 내에 있는 부부식당은 국밥을 주메뉴로 한다. 부부식당에서 사용하는 모든 음식의 재료는 국내산을 사용하며, 24시간 주문이 가능하다.",053-964-3117,,,,0,,00:00 ~ 24:00,연중무휴,추어탕 / 선지국밥,추어탕 / 선지국밥 / 선지정식 / 한우소머리국밥 / 한우소고기국밥 / 돼지따로국밥 외,,모두 금연석,가능,가능(일부 메뉴),전화 예약 가능 (053-964-3117),,20080160419
쉬어가는 집,41036,쉬어가는 집,053-985-5478,대구광역시 동구 팔공로30길 10,35.9115633675,128.6423573817,"불로동에 있는 코다리찜 전문 음식점이다. 메뉴에는 코다리찜, 낙지볶음, 도루묵찌개, 도루묵구이, 돼지껍데기, 양념닭발, 계란말이 등이 있다.<br>",053-985-5478,,,,0,,11:00 ~ 21:00,첫째·셋째 일요일,코다리찜,코다리찜 / 낙지볶음 / 도루묵찌개 외,,모두 금연석,가능,가능(일부 메뉴),전화 예약 가능 (053-985-5478),,20030160276
영생곱창,42487,영생곱창,053-629-7308,대구광역시 남구 대명로36길 64,35.8367900225,128.5743654542,"※ 영업시간 14:00 ~ 01:00 (전화문의)

대구에서 가장 번화한 계명대 근처, 안지랑곱창골목 안에 위치한 작은 규모의 돼지곱창 전문점이다. 안지랑 곱창골목은 돼지생막창과 돼지곱창을 주로 취급하는 곱창전문 골목이다. 생막창은 연탄불에, 양념막창은 철판에 구워준다. 저렴한 가격에 양이 푸짐해 젊은이들 사이에서 인기 있다.",053-629-7308,,,주차 가능,0,,14:00 ~ 01:00 (전화문의),첫째·셋째 월요일<br />둘째·넷째 일요일 (전화문의),곱창 / 막창,곱창 / 막창 / 삼겹살 / 제육볶음 / 닭발 / LA갈비 외,,모두 금연석,가능,가능,전화 예약 문의 (053-629-7308),,19980166140
가창옛날찐빵손만두 본점,42933,가창옛날찐빵손만두,053-768-5768,대구광역시 달성군 가창면 가창로 1099,35.8026725410,128.6221844139,"[대구 달성군 가창면 용계리에 있는 찐빵, 손만두 전문 가창옛날찐빵손만두]<br /><br />가창옛날찐빵손만두는 반죽에서부터 모든 작업을 수작업을 통해서 만들고 있다. 손 만두와 찐빵을 제공하며, 홈페이지를 통한 주문이 가능하다.<br>",053-768-7572,,,주차 가능,0,,07:00 ~ 01:00 (익일),연중무휴,찐빵 / 왕만두,찐빵 / 왕만두 / 찐만두 / 김치만두,,모두 금연석,가능,가능,전화 예약 가능 (053-768-5768),,20100188034
호찐빵만두나라,42934,호찐빵만두나라,053-767-1007,대구광역시 달성군 가창면 가창로 1102,35.8028586357,128.6224621621,"대구 달성군 가창면 용계리에 있는 호찐빵만두나라는 찐빵, 만두를 전문으로 하는 음식점이다. 메뉴에는 팥찐빵, 쑥찐빵, 호박찐빵, 찐만두, 왕만두, 고기만두 등 다양한 메뉴를 제공하며 선물용 박스로도 구입이 가능하다.<br>",053-767-1007,,,주차 가능,0,,07:00 ~ 00:00,연중무휴,고기만두,고기만두 / 김치만두 10개 / 찐만두 10개 / 왕만두 5개 / 팥찐빵 5개 외,,모두 금연석,가능,가능(일부 메뉴),전화 예약 가능 (053-767-1007),,19880188008
윤옥연할매떡볶이 (구 신천마약할매떡볶이),42001,윤옥연할매떡볶이,053-756-7597,대구광역시 수성구 들안로77길 11,35.8645598884,128.6170525889,"윤옥연 할매 떡볶이는 1974년 신천시장에서 개업하여 중독성 강한 매운맛으로 한번 먹고 나면 3일 뒤에 또 생각난다는 일명 ‘마약 떡볶이’로 사랑을 받기 시작했다. 후추 향이 강하고 단 맛이 없는 매운 맛으로 매니아층을 확보하고 ‘신천할매’ 팬클럽이 생길 정도로 인기를 끌며 대구 신천시장의 대구 할매 떡볶이로 자리매김했다. 맛과 인기는 날로 퍼져 여러 방송 매체를 통해 소개되었고 엄청난 인기에 너도 나도 떡볶이 양념을 따라 만들어 유사 브랜드들이 생겨나 ‘윤옥연 할매 떡볶이’ 로 이름을 바꾸면서 새롭게 시작하게 되었다. 
(출처: 윤옥연할매떡볶이)",053-756-7597,,,,0,,10:00~21:00,매주 월요일,떡볶이,떡볶이 / 어묵나베  / 만두 / 김밥 / 순대 등,,모두 금연석,없음,가능,포장 주문 가능 (053-756-7597) / 좌석 예약 불가,,20090174271
칠성동할매콩국수,41589,칠성동할매콩국수,053-422-8101,대구광역시 북구 침산남로 40,35.8887592528,128.5805301330,※ 영업시간 11:00 ~ 20:00<br><br>대구 북구 노원동1가에 있는 콩국수 전문 음식점이다. 메뉴는 단일 메뉴로 따로 주문할 필요 없이 알아서 메뉴를 준비해준다.,053-422-8101,,,주차 가능,0,,11:10 ~ 18:00,일요일,콩국수,콩국수 / 육전 외,,모두 금연석,가능,,전화 예약 가능 (053-422-8101),,20060168909
지산골가마솥국밥,42151,지산골가마솥국밥,053-765-4001,대구광역시 수성구 수성로 232,35.8461341244,128.6131728884,"지산골 가마솥 국밥은 대구 수성구 중동에 위치한 국밥 전문점이다. 이곳은 매일 아침 최고급 참한우만을 엄선하여 조리한다. 대표 메뉴는 소고기 국밥으로 뜨끈한 국물과 함께 든든한 식사를 하기 위해 많은 이들이 찾는다. 또한 소고기를 이용한 한우육회비빔밥, 매운 갈비찜, 소불고기 등의 메뉴를 취급한다. 한우육회비빔밥을 시키면 소고기 국밥이 덤으로 제공된다고 한다. 이곳은 넓은 주차장과 깨끗한 내부 시설을 갖추고 있다.",053-765-4001,,,가능,0,,00:00~24:00,연중무휴,소고기국밥 / 육국수,소고기국밥 / 육국수 / 냉콩국수 / 냉면 / 해물파전 / 육회비빔밥 / 돌판떡갈비 등,,모두 금연석,가능,일부 메뉴 포장 가능,전화 예약 가능 (053-765-4001),"화장실:남녀개별, 업소내 위치
",20000175158
커피 앤 스토리,41007,커피 앤 스토리,053-562-0575,대구광역시 동구 팔공산로185길 71,35.9887889108,128.6940839922,"대구 팔공산 동화사 집단시설지구 내 케이블카 올라가는길 입구쪽에 위치한 2층 규모의 카페이다. 간단한 브런치 메뉴와 세계바리스타 대회에서 원두품질 및 로스팅분야에서 높은 점수를 받은 스페셜티 원두만을 사용하여 최고의 커피와 장소를 제공하고 있다. 빨강머리앤을 테마로 남녀노소 누구나 동화 속 세계로 추억여행을 떠나는 시간을 가질 수 있다. 1층에는 셀프 핸드드립바를 마련하여 드립커피를 셀프로 내려 즐길수 있는 공간도 있다. 2층에는 문화강좌 공간이 있어 수공예품만들기강좌, 커피문화강좌를 계획하고 있으며 앤과 관련된 수공예품도 판매하고 있다.",010-4260-7230,,,주차 가능,0,2014년 5월 4일,11:00 ~ 22:00,,천연허브티 / 오레오치즈케이크,천연허브티 / 오레오치즈케이크 / 아메리카노 / 카페라떼 외,,모두 금연석,가능,가능,전화 예약 가능 (053-551-2121),,20140160259
파스타 오띠모,42614,파스타 오띠모,053-290-4591,대구광역시 달서구 서당로7길 45-6,35.8547281614,128.4929387981,"대구 달서구 신당동에 있는 이탈리안 음식점 파스타 오띠모는 계명대학교 성서캠퍼스 인근에 있는 캐주얼 이탈리안 레스토랑이다. 다양한 종류의 피자, 파스타, 샐러드를 저렴한 가격에 맛볼 수 있다.<br>",053-290-4591,,,,0,,11:00 ~ 22:00,연중무휴,화덕피자 / 파스타 / 샐러드,화덕피자 / 파스타 / 샐러드 / 리조또 / 아이스티 외,,모두 금연석,가능,,전화 예약 가능 (053-290-4591),"화장실:남녀개별 화장실
",20080181899
마이커피컬로맨스,41938,마이커피컬로맨스,053-424-4783,대구광역시 중구 동성로4길 93,35.8689451782,128.5994290192,"마이커피컬로맨스는 대구 중구 공평동에 위치한 빙수 전문 카페이다. 마이커피컬로맨스에서는 다양한 종류의 빙수와 커피 및 음료를 판매하며, 이곳의 메뉴 중 자몽 빙수가 인기 있다.",053-424-4783,,,,0,,12:00 ~ 23:00,연중무휴,자몽 빙수,자몽 빙수 / 바닐라 라떼 / 고구마 라떼 / 레몬 에이드 / 브라우니 / 딸기 요거트 스무디 / 딸기 와플 외,,모두 금연석,가능,,,"화장실:남녀개별, 업소내 위치
",19910158080
류,41938,류,053-425-3527,대구광역시 중구 동성로4길 91,35.8688285236,128.5993956921,"카페 류는 대구 중구 공평동에 있는 로스팅, 핸드드립 전문 카페이다. 세계 각국의 커피 원두로 다양한 종류의 커피를 맛볼 수 있다.<br>",053-425-3527,,,,0,,12:30 ~ 22:00,연중무휴,핸드드립 커피,아메리카노 / 에스프레소 / 비엔나 / 마롱라떼 / 패션 프룻 에이드 / 일본식 아이스 드립 / 로얄 밀크티 / 티라미수 조각 케이크 외,,모두 금연석,가능,가능,,,20100158255
루시드,41938,루시드,053-422-7020,대구광역시 중구 동성로4길 94,35.8688285283,128.5996512250,"명쾌하다는 뜻의 루시드는 2008년 5월, 동성로 골목에 처음 자리를 잡아 시작하였다. 세계 각국의 원두를 이용한 핸드드립 커피와 다양한 종류의 음료 및 디저트 메뉴를 맛볼 수 있으며, 찰떡으로 맛을 낸 푸짐한 양의 녹차빙수가 대표 메뉴이다.",053-422-7020,,,,0,,12:00 ~ 21:00,매주 수요일,핸드드립 커피,핸드드립 커피/ 아메리카노 / 더치커피 / 자몽진저티 / 라임에이드 / 녹차빙수 / 망고빙수 외,,모두 금연석,가능,가능(일부 메뉴),,,20080158116
구일식당,41843,구일식당,053-567-9826,대구광역시 서구 평리로35길 28-10,35.8623226838,128.5439563133,"대구광역시 서구 중리동 곱창골목에 위치한 구일식당은 곱창·대창 전문 음식점이다. 구일식당에서는 곱창·대창 볶음과 전골, 구이, 주먹시, 차돌박이 등 다양한 메뉴를 제공한다.",053-567-9826,,,,0,,10:00 ~ 23:00,,곱창·대창 전골,곱창·대창 전골 / 주먹시+곱창·대창 전골 / 주먹시 / 차돌박이 / 곱창구이 / 생고기 / 육회 외,,모두 금연석,가능,가능(일부 메뉴),전화 예약 가능 (053-567-9826),,19840163015
벙글식당,41843,벙글식당,053-566-5508,대구광역시 서구 와룡로66길 57,35.8623004637,128.5439590910,"중리동 곱창골목에 위치한 30년 넘는 전통의 곱창·대창 전문 음식점이다. 벙글식당에서는 곱창·대창 전골, 구이, 주먹시, 차돌박이 등 다양한 메뉴를 제공한다.",053-566-5508,,,,0,,09:00~24:00,첫째·셋째 일요일,주먹시 / 곱창+대창전골,주먹시 / 곱창+대창전골 / 주먹시+대창전골 / 등골 / 지레 / 간·천엽 / 육회 외,,모두 금연석,가능,가능(일부 메뉴),전화 예약 가능 (053-566-5508),,19840163020
동원찜갈비,41908,동원찜갈비,053-427-1430,대구광역시 중구 동덕로36길 9-4,35.8706923073,128.6051062484,"동원찜갈비는 대구 동인동 찜갈비 골목에 위치한 찜갈비 전문 음식점이다. 갈비찜을 주메뉴로 하며, 소고기 찌개와 공깃밥을 함께 맛볼 수 있다. 갈비는 국내산과 호주산을 선택하여 맛볼 수 있으며, 동원찜갈비는 ONCE FOOD 캠페인 참여 음식점으로 남은 음식 재사용 안 하기 운동을 실천하고 있다.<br>",053-427-1430,,88석,주차 가능,0,,09:00 ~ 23:00,연중무휴,찜갈비,낌갈비(국내산한우·호주산) / 갈비살 찌개,,모두 금연석,가능,가능,"전화 053-427-1430, 423-4145",,19900158157
월성찜갈비,41908,월성찜갈비,053-424-6942,대구광역시 중구 동덕로36길 9-5,35.8707645160,128.6048173827,"월성찜갈비는 대구 동인동 찜갈비 골목에 위치한 찜갈비 전문 음식점이다. 대표 메뉴로 찜갈비를 맛볼 수 있으며, 어린이를 위한 어린이용 찜갈비도 준비되어 있다. 이외에 한우 갈빗살 찌개를 맛볼 수 있으며, 찜갈비의 경우 국내산과 호주산이 준비되어 있다. 주차장이 협소하여 자가용 이용 시 가게 인근에 주차 후 걸어오는 것이 좋다.",053-424-6942,,,주차 가능,0,,09:00~24:00,연중무휴,찜갈비,찜갈비 / 어린이용 찜갈비 / 한우 갈빗살 찌개 외,,모두 금연석,가능,,전화 예약 문의 (053-424-6942),,19770158042
유진찜갈비,41908,유진찜갈비,053-425-7184,대구광역시 중구 동덕로36길 9-13,35.8711005902,128.6048840340,"유진찜갈비는 대구 동인동 찜갈비 골목에 위치한 찜갈비 전문점으로 갈비찜을 주메뉴로 하고 있다. 국내산 한우와 호주산을 선택하여 갈비찜을 맛볼 수 있으며, 국내산 한우와 호주산을 사용하여 제공하는 찌개도 맛볼 수 있다. 유진찜갈비는 갈비찜과 찌개 주문 시에 공깃밥은 별도이다. 유진찜갈비는 1, 2층 규모로 2층에 단체 연회석이 있어 가족모임, 단체 회식 등 단체 모임 하기에 적합하다.<br>",053-425-7184,,,주차 가능,0,,09:30~ 21:00,연중무휴,찜갈비,찜갈비(국내산 한우·호주산) / 갈비살 찌개(국내산 한우·호주산) 외,,모두 금연석,가능,,전화 예약 문의 (053-425-7184),,19760158002
미림식당,41925,,,대구광역시 중구 국채보상로93길 6,35.8708640675,128.5811083574,"서문시장 인근에 위치한 54년 된 돈가스 집이다. 유명 방송 프로그램에 소개되어 줄을 서지 않으면 먹기 힘들 정도이다. 도톰하고 큰 옛날 돈가스가 대표 메뉴이다. 이 식당은 전통방식 그대로 돈가스를 만들어 더욱 인기가 좋다. 고기를 다지는 기계가 있지만 여전히 소주병으로 고기를 다지고, 옥수수 식빵을 채에 쳐서 고운 빵가루를 내린다. 소스도 54년 전 방식으로 만든다. 소스의 기본이 되는 루는 흔히 버터로 볶지만 이집 소스에는 버터가 들어가지 않는다. 느끼하지 않고 한국 사람들 입에 잘 맞는 이유다. 소스 마지막에는 아버지가 처음 만들었던 씨소스를 넣는다.<br>",053-554-6636,,,주차 가능,0,,11:30 ~ 20:20 (라스트오더 20:10),일요일 (전화문의),돈가스,돈가스 / 어묵우동 / 냄비우동 외,,모두 금연석,가능,,,,19810158047
미진분식,41938,미진분식,053-431-1120,대구광역시 중구 동성로2길 71,35.8692006576,128.5968959017,"동성로 미진분식은 40년이 넘게 사람들의 사랑을 받아온 대구 분식계의 터줏대감이다. 메뉴는 김밥, 우동, 쫄면, 비빔우동 네 가지가 전부지만, 네 가지가 모두 인기 메뉴다. 미진분식이 정식으로 간판을 단 것은 78년이지만 장사를 시작한 것은 그 이전부터라니 40여 년이 훌쩍 넘은 역사를 자랑한다. 지금은 본점은 아들이, 228점은 막내딸이 대를 이어 영업 중이다. 전 메뉴 포장이 가능해 포장해가는 손님들도 많다.<br>",053-431-1120,,,,0,,10:00 ~ 20:00,명절연휴(전화문의),김밥 / 쫄면,김밥 / 쫄면 / 우동 / 비빔우동 외,,모두 금연석,가능,가능(일부 메뉴),전화 예약 가능 (053-431-1120),,20080158344
고구려숯불갈비,42956,고구려숯불갈비,053-639-6766,대구광역시 달성군 화원읍 명천로 244,35.7987400401,128.4921820803,"달성군 지정 친절하고 청결한 맛집으로 2001년부터 운영되어온 국내산 냉장육만 취급하는 고기 전문점이다. 오너 셰프가 직접 모든 식재료를 준비하며 조리한다. 건물 뒤로 15대 이상의 주차 가능한 넓은 공간이 마련되어 있으며 홀과 4개의 룸으로 구성되어 있어 가족 외식, 모임에서부터 단체 연회까지 가능하다. 최대 수용인원은 120명, 룸에는 최대 64명까지 수용 가능하다.",053-639-6766,,,주차 가능,0,,11:00 ~ 23:00,월요일,돼지갈비,돼지갈비 / 생삼겹살 / 한우버섯불고기 / 항정살 외,,모두 금연석,가능,가능(일부 메뉴),전화 예약 문의 (053-639-6766),"화장실:업소내 위치, 남녀개별
부대시설:테라스
",20010188082
더우,42115,더우,053-742-0210,대구광역시 수성구 들안로64길 39,35.8587633746,128.6198719466,"더우는 대구에서 유일한 드라이에이징(건식숙성)한우 전문점이다. 자체 제작한 자작나무설비에서 최소 30일~최대 70일 동안 숙성시킨다. 30일이라는 시간동안 일정한 온도와 습도 그리고 통풍이 되는 조건에서 한우를 숙성시키면 고기의 표면은 마르지만 고기 안쪽으로 응축된 아미노산과 불포화지방산 등이 고기의 식감을 더 연하고 부드럽게 하며, 치즈향 같은 독특한 풍미가 생긴다. 식육식당처럼 고기를 사갈 수도 있고, 구워먹을 수도 있다. 2등급 한우 등심을 참숯에 직화로 구워서 먹을 수 있다. 숙성등심 가격은 시세변동가격제를 적용하여 시세에 따라 유연하게 판매한다.<br>",053-742-0210,,,주차 가능,0,2015-02-10,11:00 ~ 22:00 (마지막 주문 21:30),연중무휴 (명절 전화 문의 요망),드라이에이징한우 등심,낙지소면볶음정식 / 바삭불고기정식 / 드라이에이징정식 / 숙성등심 외,,모두 금연석,가능,드라이에이징 등심 포장 가능,전화 예약 문의 (053-742-0210),"화장실:남녀공용화장실(2층)
",20150174044
[백년가게]스미센,41248,스미센,053-752-0980,대구광역시 동구 동부로30길 15,35.8756616317,128.6290706653,"[중소벤처기업부 2018년도 '백년가게'로 선정]<br /><br />한 자리를 지켜온 대구의 민물 장어 전문점. 대표메뉴는 초벌구이 후 스팀 처리하여 구워내는 촉촉한 '민물장어구이'. 짭조름한 양념과 씹을수록 배어 나오는 장어 본연의 담백한 맛이 조화롭게 어울린다. 200년 전통의 유명한 교토우나기(민물장어)동의 맛을 그대로 재연하여 그 특별함을 더했다. 덮밥, 초밥 등 식사메뉴도 준비되어 있어 아이들도 함께하기 좋다. 옛 동대구시외버스터미널 맞은편에 위치하여 '동대구역맛집'으로 입소문이 자자하다.<br>",053-752-0980,,,주차가능,0,,11:30~22:30 (주문마감 22:30),명절당일,일본식 민물장어,초밥 / 나가사키 짬뽕 / 장어덮밥 / 특선초밥 / 돈코츠라멘 등,점심특선,모두 금연석,가능,"일부메뉴 가능(장어덮밥, 초밥)",전화예약(053-752-0980) / 네이버N예약,"화장실:업소외부(남녀개별)
",19830160013
[백년가게]밀밭베이커리,41938,밀밭베이커리,053-426-1601,대구광역시 중구 국채보상로 602-1,35.8704755085,128.5966153358,"[중소벤처기업부 2019년도 '백년가게'로 선정]

1982년부터 운영된 베이커리 전문점으로 메론크림이 가득한 메론빵이 유명하다. 그외에도 깨찰빵, 베이비슈, 쌀빵, 고국마바게트, 누룽지빵 등 다양한 빵의 종류와 케이크를 맛볼 수 있는데, 방부제 및 화학보존제를 전혀 사용하지 않는다. ‘멜론빵’과 ‘구움크로켓’은 특허권을 보유하고 있는 대표 메뉴이니, 다른곳에서 맛볼 수 없는 메뉴를 찾는다면 이 제품을 추천한다. 2층에는 카페처럼 이용할 수 있는 매장도 있어, 그 자리에서 구입한 빵을 즐길 수 있다.",053-426-1601,,,주차 가능(우측 공용주차장),0,,08:00~23:00<br />※ 전화문의 요망,연중무휴,멜론빵,멜론빵 / 미인빵 / 데빌치즈번 외,,,가능,가능,,"화장실:남녀개별
",20010158516
대동강식당,42442,대동강식당,053-471-3379,대구광역시 남구 대봉로 57-1,35.8439203157,128.6039237641,"[중소벤처기업부 2019년도 '백년가게'로 선정]
남북정상회담에서 닭온반 시연으로 더욱 유명해진곳이다. “고객을 속이면 안 된다”는 경영 철학으로 식재료 선별을 까다롭게 하고 간장, 된장, 동치미 등을 직접 담가 운영하고 있는 곳이다. 이북 음식의 특성 상, 삼삼하고 깔끔한 맛을 내기 위해 진한 양념보다는 신선하고 좋은 재료만을 고집하고 있다. 동치미, 장류 등 중요한 식재료를 1년 이상 숙성하기 때문에 최근 생겨난 북한음식 프랜차이즈와는 다른 깊은 맛으로 실향민과 그 가족들, 별미를 찾는 미식가 등 오랜 단골들을 보유하고 있다.",053-471-3379,,,가능,0,1976-01-01,11:00 ~ 21:30 (평일 브레이크타임 15:00 ~ 17:00 / 라스트오더 21:00),연중무휴,평양냉면,평양냉면 / 어복쟁반,,금연,가능,가능,가능,,19720166003
[백년가게]산호찜갈비,41908,산호찜갈비,053-422-2523,대구광역시 중구 동덕로36길 9-9,35.8709200549,128.6048757068,"※ 영업시간 10:00 ~ 22:00

[중소벤처기업부 2019년도 '백년가게'로 선정]
찜갈비는 대구 10味 중 하나로, 중구에는 동인동 찜갈비골목이 형성되어있다. 부드러운 육질과 톡톡쏘는 양념 맛은 여러 방송 매체에 소개될 만큼 맛있기로 소문난 산호찜갈비는 목우촌에서 공급 받는 국내산 육우를 매콤한 양념에 버무려 양은 냄비에 담아낸 대구식 찜갈비를 선보이고 있다. 찜갈비 조리 시 당귀, 작약, 월계수 잎 등의 약초를 사용하여 일품 요리의 맛을 내며 타 업체와 차별화를 둔 것이 특징이다.",053-422-2523,,,주차 가능(4대),0,1986-08-28,10:00 ~ 22:00,,찜갈비,찜갈비,,,가능,가능,,"화장실:남녀개별
",19790158027
[백년가게]정화네하우스,41582,정화네하우스,053-423-2503,대구광역시 북구 칠성남로 216,35.8762333227,128.6038062085,"[중소벤처기업부 2019년도 '백년가게'로 선정]
대구의 전통 음식 중 하나인 북성로 돼지 불고기를 전문으로 하면서 돼지 족발을 추가하여 지역 주민들과 관광객의 높은 호응을 얻고 있는 곳이다. 연탄불에 구워 불향 가득하게 구워낸 석쇠 불고기가 대표 메뉴이다. ""서민이 부담 없이 먹는 음식을 만든다""는 경영 철학을 이어 받아, 좋은 식자재로 건강한 음식을 만들고 합리적인 가격으로 제공하기 위해 늘 노력하고 있다. 점포 외부에서 돼지 불고기를 굽고 족발을 삶는 등의 음식 퍼포먼스를 통해 고객들의 호기심을 자극하고 적극적으로 고객들과 소통하고 있다.",053-423-2503,,,,0,1987-09-03,10:00 ~ 21:00,,석쇠불고기,석쇠불고기 / 족발 / 소불고기 외,,,가능,가능,,"화장실:남녀공용
",20020168587
[백년가게]광명반점,41580,광명반점,053-424-0938,대구광역시 북구 칠성로 70-1,35.8791550867,128.5969206224,"한 길만을 걸어온 1대 사장님이 1960년도부터 대구의 유명한 중화요리 화상들에게 14여년간 기술을 배우고 익혀, 1974년에 본인의 가게를 창업한 정통중화요리집이다. 본래 40여 개 이상의 다양한 메뉴가 있었으나, 밀려드는 손님으로 인해 현재 몇몇 대표 음식만을 주력으로 하고있다. 아직 현역으로 주방을 지키시는 1대사장님 부부와, 2대사장님 부부가 음식조리와 손님접객을 하는 가족경영의 친절한 가게이다.<br /><br />대한민국 중화요리의 정통성을 이어가고자, 소스류는 일절 사용치 않고, 재료 본연의 맛을 살리는것에 집중한다. 음식의 퀄리티를 떨어뜨리지 않기 위해 배달을 하지 않는다. 화려함을 추구하는 중식당이 아닌, 아련한 추억 속 옛맛을 고집하는 중식당이다.<br>",053-424-0938,,,,0,,11:00 ~ 14:30 (재료 소진 시 영업마감),일요일 / 명절연휴,자장면 / 볶음밥 / 난자완스밥,짜장면 / 볶음밥 / 난자완스밥 / 짬뽕 외,,,없음,,,,19930168037
[백년가게]참깨국수,42185,참깨국수,053-756-1511,대구광역시 수성구 무학로31길 55,35.8330525192,128.6265887376,"※ 영업시간 11:00 ~ 21:00

1대 창업주 어머니 도영자의 대를 이어 2대 박해진 아들이 운영중이다. 수육 등 대부분의 재료는 국산을 사용하고 있으며 김치는 하루 두 세번씩 직접 담가 제공한다. 깨끗한 환경을 유지하기 위해 청결에 항상 힘쓴다.",053-756-1511,,,,0,,11:00 ~ 21:00,월요일,참깨콩국수,참깨콩국수 / 잔치국수 / 칼국수 / 삼겹살 수육 / 파전 외,,,가능,가능(일부 메뉴),,"화장실:업소내 위치
",20010175042
[백년가게]햇님베이커리,41928,,,대구광역시 중구 달구벌대로389길 70,35.8663005990,128.5758811671,대구 중구에 위치하고 있는 햇님베이커리는 30년이 넘은 개인 제과점이다. 늘 가족에게 먹인다는 정성 가득한 마음과 좋은 재료로 만들고 있다.<br>,053-252-9447,,,,0,,"평일, 토요일 06:30~22:50<br>일요일 08:00~21:00",,아몬드쿠키 / 마늘빵 / 팥빙수,아몬드쿠키 / 마늘빵 / 팥빙수 / 소시지빵 외,,,가능,가능,,,19800158052
밥을짓다,41000,,,대구광역시 동구 팔공산로9길 6-1(덕곡동),35.9943868120,128.6150963563,"밥을짓다는 팔공산 인근에 자리 잡은 한정식 맛집이다. 대표 메뉴는 스페셜 세트다. 직화우삼겹전골, 오리냉채, 통새우볼, 곱창김, 꼬시래기, 된장찌개, 참나물 돌솥비빔밥, 명품 제주 활전복죽, 활전복, 새우버터구이 등이 나온다. 이 밖에 직화우삼겹전골, 오리냉채, 통새우볼, 곱창김, 꼬시래기, 된장찌개, 참나물 돌솥비빔밥 등이 나오는 봄 세트를 비롯해 여름, 가을, 겨울이란 이름의 세트 메뉴를 맛볼 수 있다.",0507-1468-8991,,,주차가능,0,,11:00~21:00<br>라스트오더 20:00,연중무휴,스페셜 세트,각종 세트 메뉴,,,가능,,가능,"화장실:남녀 구분 내부

",20190162148
스펠바운드,42217,,,대구광역시 수성구 용학로 106-5(두산동),35.8248061238,128.6208394728,"스펠바운드는 합리적인 가격과 편안한 분위기가 매력적인 어퍼 다이닝 레스토랑이다. 대표 메뉴는 갓 구운 빵, 주스, 허브 관자살 튀김, 셰프 추천 파스타, 안심 스테이크 등을 맛볼 수 있는 시그니처 해피코스다. 이 밖에 기버터 안심 스테이크, 키즈 안심 스테이크를 선보인다. 레스토랑 내부에는 단체석이 마련돼 있으며, 예약이 가능하다.
이곳 주변에는 수성못이 있어 연계 관광지로 삼기 좋다.",053-762-2900,,,주차가능,0,,11:30 - 21:30,없음,시그니처 해피코스,"기버터 안심 스테이크, 키즈 안심 스테이크",,,가능,,가능,"화장실:남녀 구분 내부

",20170174902
빌리웍스,41594,,,대구광역시 북구 고성북로10길 41(고성동3가),35.8831850318,128.5885268055,"빌리웍스는 베이커리와 카페, 전시와 공연이 공존하는 문화예술 복합공간이다. 대표 메뉴는 각종 베이커리다. 이 밖에 아메리카노, 에스프레소, 콜드브루, 카페라떼 등을 맛볼 수 있다. 모든 메뉴는 포장이 가능하다. 카페 내부에는 단체석이 있어 각종 모임에 적합하다.
이곳 주변에는 대구 근대역사관 등 대구의 유명 관광지가 모여 있어 연계 여행에 나서기 적합하다.",053-351-0302,,,주차가능,0,,11:30 - 22:30,없음,베이커리,아메리카노 / 에스프레소 / 콜드브루 / 카페라떼 외,,,가능,,,"화장실:남녀 구분 내부

",20170169324
팔공산장작구이,41000,,,대구광역시 동구 서촌로 82(송정동),35.9830799743,128.6266345446,"팔공산장작구이는 장작구이 음식점으로 유명하다. 대표 메뉴는 오리 장작구이다. 오리를 장작으로 초벌한 뒤 숯불에 구워 먹는다. 이 밖에 삼겹살 장작구이, 등갈비 장작구이 등을 맛볼 수 있다. 모든 음식은 포장할 수 있다. 내부에는 단체석이 마련돼 있으며, 예약이 가능하다.
음식점 주변에는 팔공산이 있어 연계 관광이 용이하다.",053-984-9294,,,주차가능,0,,11:30-22:30,매주 화요일,오리 장작구이,"삼겹살 장작구이, 등갈비 장작구이",,,가능,,가능,"부대시설:어린이 놀이방, 장애인 편의 시설 

화장실:남녀 구분

",20000160238
팔공노을,41000,,,대구광역시 동구 서촌로 98-1(송정동),35.9842214794,128.6248902213,"팔공노을은 각종 철판 장작 구이 요리 전문점이다. 대표 메뉴는 삼겹살이다. 이 밖에 생오리, 토종닭, 새우구이, 갑오징어 등을 맛볼 수 있다. 내부에는 단체석이 마련돼 있어 각종 모임이 가능하다.
음식점 인근에 팔공산이 있어 식전이나 식후에 연계 여행에 나서기 좋다.",053-986-8092,,,주차가능,0,,11:30 - 22:30,없음,삼겹살,"삼겹살, 생오리, 토종닭, 새우구이, 갑오징어",,,가능,,가능,"화장실:남녀 구분

",20160160608
가야성,42739,,,대구광역시 달서구 월배로83길 7(송현동),35.8314957531,128.5513370740,"가야성은 대구 지하철 1호선 송현역에서 50m가량 떨어져 있다. 이곳의 대표 메뉴는 짬뽕이다. 돼지고기, 오징어, 각종 채소 등으로 우려낸 육수가 일품이다. 이 밖에 짜장면, 탕수육 등도 이곳을 방문하는 사람들이 즐겨 먹는 메뉴다. 전용 주차장은 없지만, 가까운 곳에 자리한 목화주차장을 이용하면 30분 무료 도장을 찍어준다.",053-654-0545,,,주차가능 / 30분 무료,0,,11:00 - 21:00,명절 연휴,짬뽕,"짬뽕, 짜장면, 탕수육",,,가능,가능,,,20170182233
마루막창 수성점,42203,,,대구광역시 수성구 수성못2길 5(두산동),35.8256255049,128.6224504191,"마루막창 수성점은 막창 전문점이다. 하지만 외관과 내부를 둘러보면 여느 막창집과는 다른 분위기를 풍긴다. 모던하고 감각적인 내 외부가 세련된 카페를 연상시키기 때문이다.<br>이곳의 대표 메뉴는 소막창이다. 이 밖에 돼지막창, 삼겹살, 막밥 등도 맛볼 수 있다. 막밥은 볶음밥의 일종인데, 밥에 소막창과 차돌박이를 넣은 볶음밥에 김 가루와 달걀 프라이가 얹어 나온다.",053-763-3003,,,주차가능,0,,"월, 화, 수, 목, 일: 17:00-23:30<br>금, 토: 17:00-24:30",,소막창,"소막창, 돼지막창, 삼겹살, 막밥",,,가능,가능,가능,"화장실:남녀 구분
",
취팔선,42775,,,대구광역시 달서구 상화로19길 9(진천동),35.8085089613,128.5238762409,"취팔선은 30년 전통의 중식당으로 대구 최대 규모다. 이곳의 대표 주방장은 중국집 배달원이었던 18세 때부터 지금까지 대구에서 가장 많이 팔리는 짜장면을 만들고 싶다는 초심을 잃지 않고 있다. 게다가 중국에서 직접 초빙한 요리사와 15년 이상의 경력을 지닌 베테랑 요리사들이 품격 있는 중화요리를 선보다. 내부 공간은 중국 현지의 느낌을 한껏 살린 인테리어가 눈에 띈다. 간단한 식사를 위해 방문하기도 좋고, 가족 행사 등 각종 모임 등에도 적합하다.",053-637-0282,,,주차가능,0,,11:00 - 21:00,명절 당일,짬뽕,"매운고추짬뽕, 나가사끼짬뽕, 짜장면, 탕수육",,,가능,가능,가능,"화장실:남녀 구분 내부
",20200183463
큰나무집,42940,,,대구광역시 달성군 가창면 우록길 24,35.7336782520,128.6595858168,"큰나무집은 궁중약백숙으로 유명한 맛집이다. 30년 넘는 경력을 지닌 주방장이 만드는데, 20여 가지 한약재, 찹쌀, 인삼, 대추 및 16가지의 다양한 잡곡을 넣어 요리한다. 게다가 토종닭을 사용하여 육질이 쫄깃하다. 궁중닭백숙 외에 도리탕, 간장찜닭, 도리탕 김치찜 등도 맛볼 수 있다. 큰나무집의 모든 음식은 화학조미료를 첨가하지 않고 오로지 자연에서 얻은 재료로 고유의 비법과 정성을 다하여 만든다.",053-793-2000,,,주차가능,0,,11:00 - 21:00,명절 당일,궁중약백숙,"도리탕, 간장찜닭, 도리탕 김치찜",,,가능,가능,가능,"화장실:남녀 구분 내부
",20080188133
하늘천따지 본점,41000,,,대구광역시 동구 서촌로 129(송정동),35.9855518223,128.6215904753,"하늘천따지 본점은 오리 요리를 전문으로 하는 음식점이다. 대표 메뉴는 생오리를 숯불에 구워서 손님상에 내는 생오리 숯불구이다. 이 밖에 생오리 불고기 양념, 오리 훈제 바비큐 등도 맛볼 수 있다. 내부에 단체석이 마련돼 있으며, 예약도 가능하다. 전용 주차장이 있어서 주차에 불편함이 없다. 인근에 팔공산이 자리 잡고 있어 식전이나 식후에 등산을 즐기기에 좋다.",053-982-6190,,,주차가능,0,,10:00 - 22:00,매주 월요일,생오리 숯불구이,"생오리 불고기 양념, 오리 훈제 바비큐",,,가능,,가능,,20050160240
정미네식당,42931,,,대구광역시 달성군 가창면 헐티로2길 26,35.7475080865,128.5543502444,불향 가득한 돼지불고기로 유명한 맛집이다. 대구에 사는 사람들은 도심을 벗어나 가창으로 나들이를 나갈 때 들러 보기 좋다. 대구뿐 아니라 전국 각지에서 찾아오는 관광객도 많다. 대표 메뉴인 돼지불고기 외에도 육수가 진하고 면발이 쫄깃한 칼국수가 별미다. 오전 11시에 문을 열고 오후 8시에 마감한다. 휴무는 매주 화요일이다.<br>*사진 출처: 대구시 달성군청 공식 블로그 '달성에 꽃피다',053-767-8522,,,있음,0,,11:00-20:00,매주 일요일,돼지불고기,"돼지불고기, 닭불고기, 감자전, 칼국수 등",,,없음,,,,20170188373
카페담,42990,,,대구광역시 달성군 유가읍 유가사2길 15,35.7149524387,128.5000725841,카페담은 비슬산 자락에 있다. 이 덕분에 번잡한 도심에서 벗어나 자연과 함께 여유를 즐기기에 좋다. 카페 옆에는 시원한 물이 흐르는 계곡이 있다. 이 덕분에 계곡의 경치를 즐기며 맘에 드는 음료는 마실 수 있다. 매일 오전 9시 30분에 문을 열기 때문에 모닝커피를 마시기에도 좋다. 마감은 오후 9시 30분이다.<br>*사진 출처: 대구시 달성군청 공식 블로그 '달성에 꽃피다',053-614-5197,,,있음,0,,월-금 09:30 ~ 20:00<br>토-일 09:30 ~ 21:00,연중무휴,아메리카노,각종 음료,,,없음,가능,,"화장실:있음
부대시설:유아놀이방
",
큰기와집,41000,,,대구광역시 동구 서촌로 106(송정동),35.9842658986,128.6237986496,"큰기와집은 팔공산 인근에 자리 잡고 있다. 이 덕분에 식전이나 식후에 팔공산 관광을 겸해 이곳을 찾는 사람이 많다. 대표 메뉴는 갖가지 한약재와 오리가 어우러진 한방오리백숙이다. 이 밖에 한방토종닭백숙, 닭도리탕, 해물닭찜 등도 맛볼 수 있다. 모든 메뉴는 포장이 가능하다. 내부에는 단체석이 마련되어 있어 각종 모임을 하기에 좋고, 예약도 가능하다. 반려견도 함께 출입할 수 있다. 단, 목줄 착용과 배변 봉투 소지는 필수다.<br>*사진 출처: 대구시 동구청",053-956-0667,,,있음,0,,11:00 - 21:00,화요일,한방오리백숙,"한방토종닭백숙, 닭도리탕, 해물닭찜",,,가능,가능,가능,"화장실:남녀 구분
",20130160065
황토시골집,41001,,,대구광역시 동구 파계로 604(중대동),35.9841883622,128.6364003188,"황토시골집은 20여 년 전 24시간 포장마차로 시작해 조금씩 확장을 거듭했다. 현재는 원적외선이 방출되는 황토로 이루어진 대규모 음식점으로 유명하다. 이곳에서는 텃밭에서 직접 기른 제철 채소, 천연 재료로 만든 각종 양념 등으로 음식을 요리한다. 대표 메뉴는 오리양념불고기다. 이 밖에 닭백숙, 오리 백숙, 닭볶음탕 등도 맛볼 수 있다. 이 덕분에 언제든 원하는 시간에 식사를 할 수 있다.<br><br>*사진 출처: 대구시 동구청",053-982-2002,,,주차가능,0,,10:00 - 21:40,연중무휴,오리양념불고기,"옻닭, 백숙 등",,,가능,,,,20080160036
버들식당,42670,,,대구광역시 달서구 두류공원로28길 8(성당동),35.8479636186,128.5668074763,"버들식당은 KBS 2TV 생생정보통 등 여러 방송에 소개된 맛집이다. 대표 메뉴는 환상의 맛 전골이다. 곱창, 대창, 불고기가 어우러진 전골로, 느끼하지 않으며 적당히 자극적인 맛이다. 이밖에 곱창전골, 대창전골, 한우불고기전골 등도 맛볼 수 있다. 쉬는 날 없이 매일 정오부터 오후 10시까지 영업한다. 모든 메뉴는 포장이 가능하다.<br>*사진 출처: 대구달서구청",053-656-1991,,,있음,0,,12:00 - 22:00(브레이크 타임 15:00 ~ 17:00),연중무휴,환상의 맛 전골,"곱창전골, 대창전골, 한우불고기전골",,,가능,가능,,"화장실:있음(남/녀 구분)
",20170181427
가마솥에 누른 밥,41000,,,대구광역시 동구 서촌로23길 13-11(덕곡동),35.9841102996,128.6205183884,가마솥에 누른 밥의 대표 메뉴는 숯불에 구워 담백한 맛이 일품인 숯불 오리다. 이곳을 방문하는 사람들은 대개 숯불 오리에 버섯을 추가해 구워 먹으며 곤드레밥을 주문해 함께 먹는다.<br>내부에는 단체석이 마련되어 있어 각종 모임을 하기에 좋다.<br>*사진 출처: 대구시 동구청,053-986-5233,,,주차가능,0,,매일 11:30 - 21:00,연중무휴,숯불오리,곤드레밥,,,가능,,,,20050160463
동림식당,41001,,,대구광역시 동구 파계로116길 49(중대동),35.9862103755,128.6374557244,"동림식당은 팔공산 인근에 자리 잡고 있다. 이 덕분에 팔공산 관광을 겸해 이곳을 찾는 사람이 많다.이곳의 대표 메뉴는 손칼국수다. 이 밖에 잔치국수, 촌두부, 찜닭 등을 맛볼 수 있다.음식점은 쉬는 날 없이 매일 오전 10시 영업을 시작해 오후 10시에 문을 닫는다. <br><br>*사진 출처: 대구시 동구청",053-982-2860,,,,0,,10:00 - 22:00,연중무휴,손칼국수,"잔치국수, 촌두부, 찜닭",,,가능,,,,19920160019
제일콩국,41972,,,"대구광역시 중구 남산로6안길 47(남산동,로하스남산)",35.8569185174,128.5861694108,"제일콩국은 여러 TV 프로그램에 출연한 맛집이다. 간단한 식사나 간식으로 먹기에 좋은 콩국과 토스트를 먹을 수 있는 곳이다. 콩국에는 인절미와 밀가루 튀김이 들어있는데 고소한 맛을 더해주어 맛이 좋다. 수타 돈가스도 바삭바삭하고 두툼하여 인기다. 이 밖에 비빔국수, 잔치국수 등도 맛볼 수 있다. 모든 메뉴는 포장이 가능하다. 오전 7시에 문을 열어 자정까지 영업한다. 덕분에 아침식사부터 야식까지 두루 즐길 수 있다.",053-253-4863,,,"주차가능 (주말, 공휴일 1시간 무료)",0,,07:00 - 24:00,매주 목요일,콩국,"토스트, 수타 돈가스",,,가능,가능,,,20120158031
유창반점,41965,,,대구광역시 중구 명륜로 20(남산동),35.8645121489,128.5886856445,"유창반점 본점의 대표 메뉴인 중화비빔밥은 오징어와 소고기에 불맛을 입힌 후 채소, 양념을 넣고 볶은 밥이다. 중독성 깊은 맛을 내는 덕분에 계속 숟가락을 들게 만든다.  생활의 달인, 식객 허영만의 백반기행, 생생정보 등 많은 TV 프로그램에 소개된 바 있다. 게다가 대구 토박이들 사이에서 맛집으로 소문난 곳이라 항상 손님이 넘친다.",053-254-7297,,,,0,,매일 11:00 - 19:00,명절당일 휴무,"중화비빔밥, 중화비빔면",각종 중화요리,,,가능,,,"화장실:가능
",20200159684
후꾸스시,42177,,,대구광역시 수성구 동대구로20길 66(지산동),35.8381186367,128.6279079249,"후꾸스시는 대구시 수성구 지산동에 자리 잡고 있다. 대표 메뉴는 광어, 연어, 아카미, 밀치, 방어, 호타테, 장어, 왕생새우 등으로 초밥을 만든 후꾸스페셜 스시다. 이 밖에 광어, 연어, 참치 속살, 참치 뱃살, 참돔, 메카, 생새우로 초밥을 만든 후꾸를 비롯해 후한, 꾸밈, 후꾸 정식 등을 판다. 내부에는 단체석이 마련되어 있어 각종 모임을 하기에 좋다.",0507-1390-7989,,,있음,0,,"화요일~토요일 11:30 - 20:30 (브레이크 타임 14:30 - 17:30 라스트오더 14:00, 20:00) / 일요일 11:30 - 14:30 (라스트오더 14:00)","월요일, 명절 연휴",후꾸스페셜 스시,"후꾸, 후한, 코보레스시",,,없음,,,,20150174533
퀸즈크라운베이커리카페,41824,,,대구광역시 서구 서대구로 118(평리동)퀸즈크라운베이커리카페,35.8685499711,128.5556412216,"퀸즈크라운베이커리카페는 대구시 서구 평리4동에 자리 잡고 있다. 대표 메뉴는 마늘 바케트와 페스츄리앙버터 등 각종 베이커리다. 이곳의 빵은 유기농 밀가루를 천연 발효 시켜 만들며, 당일 생산과 당일 판매를 원칙으로 하고 있다. 베이커리 종류 이외에 각종 음료도 판다. 내부에는 단체석이 마련되어 있어 각종 모임을 하기 좋다.",053-567-8080,,,있음,0,,08:00 - 24:00,없음,각종 베이커리,각종 음료,,,없음,,,,20200164246
양곱화,42169,,,대구광역시 수성구 들안로 80(두산동),35.8370907769,128.6171533445,"양곱화는 대구시 수성구 두산동에 자리 잡고 있다. 대표 메뉴는 한우 대창구이다. 이 밖에 한우 곱창구이, 특양구이, 돌곱창전골, 오돌 갈비를 판다. 내부에는 단체석이 마련되어 있어 각종 모임을 하기에 좋고, 예약도 가능하다. 오후 5시 30분부터 오후 10시까지 영업한다.",053-753-3107,,,있음,0,,17:30 - 22:00,없음,한우대창구이,"한우곱창구이, 특양구이, 돌곱창전골, 오돌갈비",,,없음,,,,20020174136
앞산분식,42492,,,대구광역시 남구 앞산순환로 383-6(대명동),35.8324848350,128.5678911439,"앞산분식은 대구시 남구 대명동에 자리 잡고 있다. 대표 메뉴는 통통한 새우살을 가득 넣은 에비산도다. 이 밖에 갈릭 로제 국물 떡볶이, 맥앤치즈 국물 떡볶이, 소불고기 한쌈 김밥, 홍게살샐러드 지단김밥 등을 판다. 모든 메뉴는 포장이 가능하다. 내부에는 단체석이 마련되어 있어 각종 모임을 하기에 좋고, 예약도 가능하다.",053-628-0077,,,있음,0,,10:00 - 20:30 브레이크타임 15:30~16:30,없음,에비산도,"갈릭 로제 국물떡볶이, 맥앤치즈 국물떡볶이, 소불고기 한쌈김밥, 홍게살샐러드 지단김밥",,,없음,,,,20190167301
아눅앞산,42490,,,대구광역시 남구 앞산순환로 459(대명동),35.8323072121,128.5752071709,"아눅앞산은 대구시 남구 대명동에 자리 잡고 있다. 대구 시내를 조망할 수 있는 위치에 있다. 대표 메뉴는 이곳의 스페셜 커피인 시즈널 스폐셜이다. 이 밖에 프렌치토스트, 에티오피아, 코스타리카, 카페라테, 바닐라라테, 나눅샤케라또, 크림코르타도, 아포가토 등을 판다. 내부에는 단체석이 마련되어 있어 각종 모임을 하기 좋다.",0507-1422-1060,,,있음,0,,"10:00 - 22:00, 브런치 10:00 - 17:00","설날, 추석 당일",시즈널 스폐셜,"프렌치토스트, 에티오피아, 코스타리카, 카페라떼, 바닐라라떼, 나눅샤케라또, 크림코르타도, 아포가토",,,없음,,,,19800166005
산엘아르카,42990,,,대구광역시 달성군 유가읍 휴양림길 416,35.7021426892,128.4953427971,"산엘아르카는 대구시 달성군 유가읍에 자리 잡고 있다. 대표 메뉴는 브런치 산 플레이트다. 이 밖에 상하이 크랩 파스타, 베이컨 까르보나라, 김치 필라프, 새우 필라프, 삼겹 스테이크, 트러플 감자튀김, 각종 음료 등을 판다. 오전 10시부터 오후 9시까지 영업하며, 식사 마지막 주문은 오후 8시까지 받는다. 매달 마지막 주 월요일은 쉬는 날이다.",0507-1339-4089,,,있음,0,,10:00~21:00,월요일,브런치 산 플레이트,"상하이 크랩 파스타, 베이컨 까르보나라, 김치 필라프, 새우 필라프, 삼겹 스테이크, 트러플 감자튀김, 각종 음료",,,없음,,,,20200189272
갈비만대구본점(갈비만),42754,,,대구광역시 달서구 조암로 58(월성동),35.8243321674,128.5237091503,"갈비만대구본점(갈비만)은 대구시 달서구 월성동에 자리 하고 있는 갈비 전문점이다. 음식점 내부는 외부에서 보는 것 만큼 넓어 많은 고객들을 수용할 수 있다. 단체석이 마련되어 있어 각종 모임을 하기에 좋고, 예약이 가능하다.	대표 메뉴는 최상급 돼지갈비 목살에 과일과 채소로 만든 양념을 입혀 참숯에 구워 먹는 ‘갈비만’ 갈비이다. 이 밖에 한돈 폭립양념갈비, 숙성 생삼겹살, 우대 갈비, 한우 암소 갈비살, 한우 암소 생육회 등을 판다.",053-634-9233,,,가능,0,,주중 11:30~22:30 (브레이크타임 14:00~16:30)<br>주말 11:30~22:30 (브레이크타임 없음),연중무휴,갈비만갈비,"한돈 폭립양념갈비, 숙성 생삼겹살, 우대 갈비, 한우암소 갈비살, 한우암소 생육회",,,없음,,,,20100182037
데우스커피,42176,,,대구광역시 수성구 동대구로14길 15-6(지산동) 2층,35.8372936811,128.6252526257,"데우스커피는 대구시 수성구 지산동에 자리 잡고 있다. 대표 메뉴는 플랫 화이트다. 이 밖에 아인슈패너, 아메리카노, 카페 라테, 바닐라 라테, 당근케이크, 크루아상, 까눌레 등을 판다. 쉬는 날은 매주 월요일이다.",0507-1434-2222,,,있음,0,,11:00~22:00,"월요일, 명절 당일",플랫 화이트,"아인슈패너, 아메리카노, 카페 라떼, 바닐라 라떼, 당근케이크, 크루아상, 까눌레",,,없음,,,,20180175694
보스턴커피(보스턴),41144,,,대구광역시 동구 방촌로 58(검사동),35.8854388643,128.6594454952,"보스턴 커피는 대구시 동구 검사동에 자리 잡고 있다. 대표 메뉴는 에스프레소에 우유와 크림이 더해진 피케다. 이 밖에 아메리카노 반코, 아메리카노 골드메달 트리니티, 아메리카노 살바토레, 핸드드립 빌리웍스, 핸드드립 반코, 카페라테 등을 판다. 내부에는 단체석이 마련되어 있어 각종 모임을 하기 좋다.",0507-1410-1239,,,있음,0,,10:00 - 21:00,없음,피케,"아메리카노 반코, 아메리카노 골드메달 트리니티, 아메리카노 살바토레, 핸드드립 빌리웍스, 핸드드립 반코, 카페라떼 등",,,없음,,,,20200161417
부바스(본점),42187,,,대구광역시 수성구 무학로 152(두산동),35.8299556214,128.6252056122,"부바스는 대구시 수성구 두산동에 자리 잡고 있다. 대표 메뉴는 '마약 옥수수'란 별칭을 지닌 부바콘이다. 이 밖에 에그 베네딕트, 머쉬룸러버 피자, 마르게리타 피자. 와일드블고기브레드, 큐브라테, 더치 등을 판다. 내부에는 단체석이 마련되어 있어 각종 모임을 하기에 좋고, 예약도 가능하다.",053-768-5900,,,있음,0,,"평일 10:00 - 22:00 / 금,토,일 10:00 - 23:00",없음,부바콘,"에그베네딕트, 머쉬룸러버 피자, 마르게리타 피자. 와일드블고기브레드, 큐브라떼, 더치 등",,,없음,,,,20170174020
무화커피,42021,,,대구광역시 수성구 국채보상로186길 81(범어동) 2층,35.8647574058,128.6342649565,"무화커피는 대구시 수성구 범어동에 자리 잡고 있다. 대구 도심을 조망할 수 있는 루프탑 카페로 유명하다. 대표 메뉴는 프랑스산 버터와 밀가루로 만든 크루아상, 생지를 이용하여 풍미가 좋은 크로플이다. 이 밖에 크루아상, 타르트 종류, 미니크림 나폴리타나, 메이플피칸 데니쉬, 아메리카노, 카페라테, 모카라테 등을 판다.",010-5705-9188,,,있음,0,,10:30 - 24:00,"추석,설 당일",크로플,"크로와상, 타르트 종류, 미니크림 나폴리타나, 메이플피칸 데니쉬, 아메리카노, 카페라떼, 모카라떼",,,없음,,,,20200175669
태능집,41920,,,대구광역시 중구 달성로22길 86(수창동),35.8743998825,128.5867605389,"태능집은 대구시 중구 수창동에 자리했다. SBS 예능 프로그램 백종원의 3대 천왕, SBS 시사 교양 프로그램 생방송 투데이 등에 소개된 맛집이다. 대표 메뉴는 간장으로 양념한 고기를 석쇠에 올려 연탄불에 구운 돼지불고기이고 이 밖에 우동이 있다. 파라솔 테이블에 플라스틱 의자가 포장마차를 연상케 하며 깍두기를 포함한 추가 반찬은 셀프 이용이 가능하며 포장도 된다. 태능집은 대구 지하철 3호선 달성공원 역에서 가까운 거리에 위치했다.",053-252-1817,,,,0,,16:30 - 03:30,비정기 휴무,돼지불고기,우동,,,가능,가능,,"화장실:가능
",20160158754
씨레기국수,42447,,053-471-4555,대구광역시 남구 봉덕남로 59(봉덕동),35.8425869374,128.5933136248,대구 남구 봉덕동에 위치한 시래기국밥과 시래기국수 맛집이다. 시래기는 무우의 윗부분이나 배추겉면의 못쓰는 부분을 말린 것인데 구수한 맛이 일품이고 겨울철 모자라기 쉽상인 비타민과 미네랄 식이섬유가 풍부해서 건강에 좋다. 겨울철 맛집으로 씨레기국수를 추천한다. <br>,,,,,0,,매일 11:00 ~ 17:00,매주 일요일,"씨레기국수, 씨레기국밥",,,,없음,,,,
군산집,39062,,,대구광역시 군위군 창평길 19,36.0996285750,128.6648723359,"군산집은 경북 군위군 부계면에 있다. 간자미 요리를 잘하기로 유명해 많은 사람이 방문한다. 
대표 메뉴는 간재미 무침이며, 간재미 비빔밥, 간재미 비빔국수, 돼지찌개, 황태된장찌개 등도 판다. 간재미 무침은 포장이 가능하다. 
동군위IC와 가깝고, 인근에 군위오펠GC과 팔공산도립공원이 있다.",054-382-5677,,,있음 / 주차요금 무료,0,,10:30~21:00,화요일,간재미 무침,"간재미 비빔밥, 간재미 비빔국수, 돼지찌개, 황태된장찌개",,,가능,가능,,,20160562019
군위참좋은한우직판장,39026,,,대구광역시 군위군 간동유원지길 5,36.1787347470,128.5835883967,"군위참좋은한우직판장은 경북 군위군 효령면에 있다. 한우 가격이 저렴한 편이지만, 맛은 저렴하지 않고 훌륭해 많은 사람이 찾는다. 
대표 메뉴는 구이용 한우이며, 육회비빔밥, 불고기전골, 옛날국수 등을 판다. 
평일과 공휴일의 운영시간은 같지만, 마지막 주문은 평일 20시, 공휴일 19시 20분까지 받는다. 
군위IC와 가깝고, 인근에 캠핑장 등을 운영 중인 위천수변테마파크가 있다.",054-382-8260,,,있음 / 주차요금 무료,0,,10:30~21:00,없음,구이용 한우,"육회비빔밥, 불고기전골, 옛날국수 등",,,가능,,,"화장실:남녀 구분 내부
",20090562045
리틀맨리,39062,,,대구광역시 군위군 창평길 25-3,36.0991786371,128.6654500754,"리틀맨리는 경상북도 군위군 부계면에 있다. 여러 가지 도넛과 각종 음료를 파는 카페다.
대표 메뉴는 버터넛이며, 레드벨벳, 크림 브릘레, 누텔라, 에스프레소, 아인슈페너, 레몬에이드 등도 맛볼 수 있다.
내부에 단체석이 마련되어 있어 각종 모임을 가지기에 좋다.
동군위IC에서 가깝고, 주변에 군위오펠GC가 있다.",010-6663-8535,,,있음 / 주차요금 무료,0,,10:00~20:00,연중무휴,버터넛,"레드벨벳, 크림 브릘레, 누텔라, 에스프레소, 아인슈페너, 레몬에이드 등",,,가능,가능,,"화장실:남녀 구분 내부
",20210566054
신등갈비,39062,,,대구광역시 군위군 치산효령로 1414,36.1036808162,128.6607503636,"신등갈비는 경상북도 군위군 부계면에 있다. 등갈비를 주재료로 각종 요리를 내놓는 곳이다. 
대표 메뉴는 등갈비묵은지찜이다. 이 밖에 양념등갈비구이, 등갈비우거지감자탕, 등갈비묵은지감자탕, 매운등갈비구이 등을 맛볼 수 있다.
동군위IC에서 가깝고, 주변에 군위오펠GC, 장곡자연휴양림이 있다.",054-383-3789,,,있음 / 주차요금 무료,0,,10:30~20:30,화요일,등갈비묵은지찜,"양념등갈비구이, 등갈비우거지감자탕, 등갈비묵은지감자탕, 매운등갈비구이 등",,,가능,,,,20050562006
연화식당,39015,,,대구광역시 군위군 중앙6길 19-1,36.2409662474,128.5667020197,"연화식당은 경북 군위군 군위읍에 자리 잡고 있다. 옻닭 등 닭 요리로 유명해 연중 사람들의 발길이 모인다. 
대표 메뉴는 눈맞은옻닭이다. 겨울철 눈을 맞고 자란 옻나무를 재료로 쓴다고 해서 눈맞은옻닭이라 이름 붙여졌다. 이 밖에 능이백숙, 한방백숙, 닭볶음탕, 닭불고기, 부추전, 배추전 등을 판다.  
인근에 구니CC가 있어 라운딩 전후에 방문하기 좋다.",054-382-5767,,,있음 / 주차요금 무료,0,,10:00~20:30,월요일,눈맞은옻닭,"능이백숙, 한방백숙, 닭볶음탕, 닭불고기, 부추전, 배추전 등",,,가능,가능,,"화장실:남녀 구분 내부
",20150562037
우사랑한우마을,39010,,,대구광역시 군위군 도군로 2645,36.2460461630,128.5633466171,"우사랑한우마을은 경북 군위군 군위읍에 자리 잡고 있다. 
대표 메뉴는 구이용 한우이며, 뭉티기, 육회, 불고기전골, 육회비빔밥, 갈비탕, 선지우거지해장국 등 다양한 요리를 맛볼 수 있다. 
음식점 내부가 넓어 단체 모임을 하기 좋다. 
군위IC에서 가깝고, 인근에 구니CC와 엠스클럽 의성CC가 있다. 관광지로는 위천수변 테마파크가 있다.",054-382-2422,,,있음 / 주차요금 무료,0,,10:00~22:00,없음,구이용 한우,"뭉티기, 육회, 불고기전골, 육회비빔밥, 갈비탕, 선지우거지해장국 등",,,가능,,,"화장실:남녀 구분 내부
",20090562046
카페댐댐,39055,,,대구광역시 군위군 삼국유사로 438-16,36.1233061006,128.7954573601,"카페댐댐은 경상북도 군위군 삼국유사면 학성리에 있다. 군위댐을 조망하며 여러 가지 음료와 빵을 맛볼 수 있다.
대표 메뉴는 군위에서 재배한 자두로 만든 자두에이드다. 이 밖에 자두라테, 댐댐슈페너, 댐댐라테, 히비스커스유자에이드 등을 판다.
동군위IC와 신녕IC에서 가깝고, 인근에 일연공원, 장곡자연휴양림이 있다.
※ 반려동물 동반 가능(목줄, 배변봉투 지참)",010-2763-3039,,,있음 / 주차요금 무료,0,,"월~금 10:00~20:00, 토~일 10:00~21:00",연중무휴,자두에이드,"자두라테, 댐댐슈페너, 댐댐라테, 히비스커스유자에이드",,,가능,,,"화장실:남녀 구분 내부
",20210566037
카페스톤,39066,,,대구광역시 군위군 한티로 1525-6,36.0299191839,128.6307495338,"카페스톤은 경상북도 군위군 부계면 남산리에 있다. 자연과 어우러진 세련된 느낌의 외관과 내부가 시선을 붙든다.
대표 메뉴는 자체 개발한 블렌딩으로 만든 돌커피로 아메리카노의 일종이다. 이 밖에 짭조름한 크림을 얹은 돌소금을 비롯해 까까라테, 트리플에이드, 돌푸치노, 단풍라테 등을 맛볼 수 있다.
동군위IC에서 가깝고, 인근에 팔공산도립공원, 팔공산금화자연휴양림이 있다.
※ 반려동물 동반 가능(목줄, 배변봉투 지참)",010-9374-7092,,,있음 / 주차요금 무료,0,,11:00~21:00,수요일,돌커피,"돌소금, 까까라테, 트리플에이드, 돌푸치노, 단풍라테 등",,,가능,가능,,"화장실:남녀 구분 내부
",20190566030
카페우즈,39065,,,대구광역시 군위군 한티로 2036,36.0498951726,128.6564717016,"카페우즈는 경상북도 군위군 부계면에 있다. 
대표 메뉴는 아메리카노이며, 카페라테, 에스프레소, 카페모카, 카푸치노, 아인슈페너, 연유라테 등도 맛볼 수 있다.
주말과 공휴일 오후 2시부터 3시간 동안 12개월부터 13세까지는 입장할 수 없는 노키즈존으로 운영된다.
동군위IC에서 가깝고, 인근에 동산계곡이 있다.
※ 반려동물 동반 가능(목줄, 배변봉투 지참)",054-383-0889,,,있음 / 주차요금 무료,0,,11:00~21:00,매주 화요일,아메리카노,"카페라테, 에스프레소, 카페모카, 카푸치노, 아인슈페너, 연유라테 등",,,가능,가능,,"화장실:남녀 구분 내부
",20180566024
한밤황토집,39065,,,대구광역시 군위군 한밤8길 46-55,36.0643629142,128.6531521431,"한밤황토집은 경상북도 군위군 부계면 대율리 소재 한밤돌담마을에 있다. 닭과 오리를 활용한 백숙 요리가 별미다.
대표 메뉴는 황실닭백숙이다. 이 밖에 황실오리백숙, 오리반반세트, 오리생구이, 오리양념구이, 옻닭, 닭볶음탕, 해물파전 등을 판다.
동군위IC에서 가깝고, 인근에 군위삼존석굴, 동산계곡, 화본역이 있다.",010-4806-4781,,,있음 / 주차요금 무료,0,,11:00~21:00,화요일. 단 화요일이 공휴일일 경우 정상영업하고 다음날 휴무,황실닭백숙,"황실오리백숙, 오리반반세트, 오리생구이, 오리양념구이, 옻닭, 닭볶음탕, 해물파전 등",,,가능,가능,가능,"화장실:남녀 구분
",20140562035
앞산 큰골집,42488,,,대구광역시 남구 큰골길 35,35.8375983348,128.5781956503,"앞산 큰골집은 대구광역시 남구 대명동에 있다. 대표 메뉴는 캡사이신을 사용하지 않고 고춧가루와 과일로 맛을 낸 매콤한 등갈비찜이다. 하루 200인분 한정으로 매일 갈비를 끓여서 조리한다. 가마솥에 지은 밥과 국산 곤드레가 어우러진 가마솥 곤드레밥도 인기다. 이 밖에 메밀전, 강원도 옥수수 막걸리 등도 맛볼 수 있다. 외관과 인테리어가 깔끔하며, 내부에는 단체석이 마련되어 있어 각종 모임을 하기 좋다. 대구 지하철 1호선 안지랑역과 파동IC에서 가깝다. 주변에는 앞산 해넘이 전망대, 앞산 카페거리, 안지랑 곱창거리가 있어 연계 여행에 나서기 쉽다.",053-626-0888,,,있음 / 주차요금 무료,0,,11:30~22:00 (브레이크 타임 15:30~17:30),전화문의,등갈비찜,"가마솥 곤드레밥, 메밀전, 강원도 옥수수 막걸리 등",,,가능,가능,,,20060166122
카페멜트,41521,,,대구광역시 북구 공항로 89,35.9000365704,128.6247981393,"카페멜트 대구광역시 북구 복현동에 있다. 모던한 느낌의 건물은 2019년 도시 미관을 아름답게 만든 공로를 인정받아 대구시로부터 건축 최우수상을 받았다. 차분하고 깔끔한 분위기를 연출하는 인테리어도 눈에 띈다. 내부에는 단체석이 마련되어 있어 각종 모임을 하기 좋다. 아메리카노, 에스프레소, 플랫 화이트, 피치 라임 에이드 등의 음료와 함께 크루아상 등 다양한 베이커리도 맛볼 수 있다. 불로IC에서 가깝고, 인근에 불로동 고분군, 대구 섬유박물관 등이 있어 연계 관광이 수월하다.",053-382-0888,,,있음 / 주차요금 무료,0,,10:30~23:00,연중무휴,아메리카노,"크로와상, 에스프레소, 플랫화이트, 피치 라임 에이드 등",,,가능,가능,,"화장실:남녀 구분
",20190169846
감나무집,42940,,,대구광역시 달성군 우록3길 73,35.7166964170,128.6367549604,"감나무집은 숲속에 위치한 닭, 오리 요리 전문점으로 바로 옆에 계곡이 있어 어린이들이 물놀이를 할 수 있다. 내실 뿐만 아니라 외부에도 좌석이 마련돼 있어 캠핑장에 온 듯한 느낌을 즐길 수 있지만 여름에는 모기가 있다는 단점이 있다. 단체 8인 이상이 아닐 경우에는 자리 예약을 할 수 없다. 대표 메뉴는 촌닭 능이 한방백숙인데, 시간이 많이 걸리니 미리 전화로 주문하는 것이 좋다. 
파동 IC에서 가깝고, 인근에 워터파크 스파밸리, 아이우주교실이 있다.
※ 반려동물 동반 가능(목줄, 배변봉투 지참)",053-761-6666,,,있음 / 주차요금 무료,0,,11:00~22:00,연중무휴,촌닭 능이 한방백숙,"토종닭다리살 숯불구이, 유황오리 버섯불고기, 토종닭도리탕, 해물파전 등",,,가능,,예약 가능,"화장실:남녀구분
",19930188062
게이블루프커피,42917,,,대구광역시 달성군 강정본길 77,35.8423623562,128.4635722847,"게이블루프커피는 현대적인 느낌이 물씬 나는 외관과 모던한 분위기를 연출한 인테리어가 돋보이는 카페다. 내부에는 단체석이 마련되어 있어 각종 모임을 가지기 좋다. 반려동물은 3층 테라스에만 입장할 수 있다. 대표 메뉴는 아인슈페너다. 아몬드크림라떼, 아메리카노, 크림밀크티, 말차라떼, 자스민자몽 에이드 등도 맛볼 수 있다. 다사IC에서 가깝고, 인근에 강정보유원지, 강정보디아크광장과 계명대학교 성서캠퍼스가 있다.
※ 반려동물 동반 가능(목줄, 배변봉투 지참)",053-593-1968,,,있음 / 주차요금 무료,0,,09:30~23:00 (일요일-목요일) / 09:30~24:00(금요일-토요일),연중무휴,아인슈페너,"아몬드크림라떼, 아메리카노, 크림밀크티, 말차라떼, 자스민자몽 에이드 등",,,가능,가능,,"화장실:남녀구분
",20190189425
김태희옛날손국수,42977,,,대구광역시 달성군 옥포로 597,35.7467125301,128.4888004798,"김태희옛날손국수는 대구광역시 달성군 비슬산 자락에 있다. 예스러운 외관과 깔끔한 분위기의 인테리어가 눈에 띈다. 내부에는 단체석이 마련되어 있어 각종 모임을 가지기 좋다. 매일 아침 보존제나 면 강화제를 사용하지 않고, 오직 밀가루와 콩가루만을 배합해 숙성시킨 반죽으로 직접 면을 뽑아 사용한다. 대표 메뉴는 손칼국수이며, 얼큰해물칼국수, 칼제비, 들깨칼국수, 묵밥, 잔치국수, 수육 등도 맛볼 수 있다. 달성 IC에서 가깝고, 비슬살 둘레길 2구간이 있으며 인근에 국립대국과학관자연학습장, 테크노폴리스중앙공원이 있다.",053-616-0765,,,있음 / 주차요금 무료,0,,10:00~21:00,수요일,손칼국수,"얼큰해물칼국수, 칼제비, 들깨칼국수, 묵밥, 잔치국수, 수육 등",,,가능,가능,예약 가능,"화장실:남녀구분
",20200189734
카페공가,42939,,,대구광역시 달성군 주리1길 52-5,35.7579891481,128.6462585357,"카페공가는 대구광역시 달성군 가창면 주리에 있다. 카페에 들어서면 자연친화적인 분위기가 느껴진다. 널찍한 정원에 테이블이 마련되어 있고, 카페 안에 수심이 얕은 계곡이 있어 여름철이면 간단한 물놀이도 가능하다. 대표 메뉴는 아메리카노다. 이 밖에 카페라떼, 바닐라라떼, 멜랑스윗, 아인슈페너, 말차라떼 등도 맛볼 수 있고 베이커리도 마련되어 있다. 주차 공간이 넓어 편하다. 파동IC에서 가깝고, 인근에 워터파크 스파밸리가 있어 연계 여행하기 쉽다.
※ 반려동물 외부공간 목줄착용시 동반 가능",053-767-0910,,,있음 / 주차요금 무료,0,,11:00~20:00,화요일,아메리카노,"카페라떼, 바닐라라떼, 멜랑스윗, 아인슈페너, 말차라떼 등",,,가능,가능,,"화장실:남녀구분
",20010188118
노이식탁,42489,,,대구광역시 남구 대명남로 1881층,35.8353930360,128.5785623458,"노이식탁은 대구광역시 남구 대명동 소재 앞산카페거리에 있다. 대중교통을 이용한다면 지하철 인지랑 역 3번 출구와 가깝다. 전용 주차장이 없지만, 앞산카페거리 공영주차장을 이용할 수 있다. 대표 메뉴는 수비드 방식으로 조리한 삼겹살 스테이크에 매시드포테이토를 곁들인 노이 스테이크다. 통통한 새우가 들어간 고소한 새우 크림 파스타, 베이컨과 새송이버섯을 넣은 진하고 고소한 베이컨 크림 파스타도 인기다. 이 밖에 조개, 마늘, 바질 페스토로 맛을 낸 바질 봉골레 파스타, 베이컨, 토마토, 모차렐라가 어우러진 베이컨 치즈 토마토 파스타 등도 맛볼 수 있다. 인근에 앞산 해넘이 전망대와 먹자거리인 앞산맛둘레길과 안지랑 곱창거리가 있어 연계 여행에 나서기 쉽다.",070-4117-5252,,,없음,0,,11:30~22:00(라스트 오더 21:00),연중무휴,노이스테이크,"새우 크림 파스타, 베이컨 크림 파스타, 바질 봉골레 파스타, 베이컨 치즈 토마토 파스타 등",,,가능,,,,20110166160
호어모아,42495,,,대구광역시 남구 안지랑로5길 88,35.8331013880,128.5654885606,"호어모아는 대구광역시 남구 대명동, 앞산맛 둘레길에 있는 양식집이다.
주택을 개조해서 건물 외부는 가정집 같지만 깔끔하고 고급스러운 내부 인테리어가 눈에 띈다. 
호어모어는 하와이 말로 ‘요리하는 집이란 뜻이다. 식당 내부에는 단체석이 마련되어 있어 각종 모임을 가지기 좋다.
대표 메뉴는 새우와 꽃게 향이 가득한 해산물 로제이며, 고소한 크림소스에 매콤함을 더한 투움바 파스타, 새우와 마늘을 버터에 볶아 허브로 맛을 낸 버터갈릭 쉬림프도 인기다. 이 밖에 핫칠리 쉬림프, 하와이안 갈비 등을 맥주와 함께 즐길 수 있다.",053-653-0007,,,없음,0,,11:00~22:00 (브레이크 타임 16:00~17:00 / 라스트 오더 21:00),연중무휴,해산물 로제,"투움바 파스타, 버터갈릭 쉬림프, 핫칠리 쉬림프, 하와이안 갈비 등",,,가능,가능,,"화장실:남녀구분
",20170166291
벨베꼼메,42922,,,대구광역시 달성군 세천북로 66,35.8778807616,128.4747647589,"벨베꼼메는 덴마크 어로 맛있게 드시라는 의미이다. 대구광역시 달성군 다사읍 세천리에 있다. 현대적인 감각이 돋보이는 외관과 고급스러운 분위기를 연출하는 인테리어가 눈에 띈다. 메인 건물 옆에 별관이 있는데 그곳에는 높고 큰 책장 인테리어가 돋보인다. 내부에는 단체석이 마련되어 있어 각종 모임을 하기 좋다. 대표 메뉴는 아메리카노다. 이 밖에 라떼, 이스라떼, 아인슈페너, 토마토 바질 에이드 등을 맛볼 수 있다. 베이글 샌드위치 등 여러 가지 빵도 판다. 북 다사IC에서 가깝고, 인근에 마천산산림욕장, 대한불교조계종 불은사가 있다.",053-581-1620,,,있음 / 주차요금 무료,0,,11:00~22:00(라스트 오더 21:30),연중무휴,아메리카노,"라떼, 이스라떼, 아인슈페너, 토마토 바질 에이드, 각종 디저트 등",,,가능,가능,,"화장실:남녀 구분
",20210189873
수수밀소,41058,,,대구광역시 동구 매여로 320,35.9068652470,128.7151094384,"수수밀소는 대구광역시 동구 상매동에 있는 베이커리 & 브런치 카페다. 주차장이 넓고, 실내/외 인테리어가 돋보인다. 대표 메뉴는 싱글 원두로 만드는 필터 커피지만 다양한 빵과 음료, 그리고 아보카도 그릭 토스트, 에그 베네딕트, 연어 크림치즈 타르틴도 맛있다. 고소한 아몬드 우유, 에스프레소, 수수라떼도 많이 찾는다, 주차장이 넓고 매장 안에서 바라보는 바깥 경치도 시원하다.
둔산IC에서 가깝고, 인근에 옻골마을, 팔공산왕건길 6코스와 7코스가 있어 연계 여행에 나서기 좋다.",053-965-4595,,,있음 / 주차요금 무료,0,,10:30~20:00 (라스트 오더 19:30),월요일,필터커피,"수수라떼, 카페라떼, 히비스커스 레몬, 라임 스파클링 등",,,가능,가능,,"화장실:남녀 구분
",20200162250
더 디퍼,41921,,,대구광역시 중구 서성로 67,35.8726056458,128.5870133442,"더 디퍼는 대구광역시 중구 서성로 1가에 있다. 모던한 느낌의 외관과 고급스러운 분위기를 연출하는 인테리어가 눈에 띈다. 내부에는 단체석이 마련되어 있어 각종 모임을 하기 좋다. 무엇보다 다양한 포토존이 마련되어 있고, 반려동물과 함께 입장할 수 있다는 게 가장 큰 특징이다. 대표 메뉴는 아메리카노다. 이 밖에 북성로커피, 아미노커피, 카페라떼, 바날리라떼, 아인슈페너 등을 맛볼 수 있다. 대구 지하철 3호선 서문시장역과 북대구 IC에서 가깝다. 인근에는 청라언덕, 약전골목, 대구근대역사관 등이 있어 연계 여행에 나서기 좋다.
※ 반려동물 동반 가능(목줄, 배변 봉투 지참)",053-522-9951,,,있음 / 주차요금 없음,0,,10:00~22:00,연중무휴,아메리카노,"북성로커피, 아미노커피, 카페라떼, 바날리라떼, 아인슈페너 등",,,가능,가능,가능,"화장실:남녀 구분
",20200159226
라겟옴,42491,,,대구광역시 남구 앞산순환로87길 511층,35.8329071016,128.5728934691,"라겟옴은 대구광역시 남구 대명동에 있다. 노키즈존으로 운영되는 베이커리 카페다. 클래식한 느낌의 외관과 모던한 분위기를 연출하는 인테리어가 눈에 띈다. 대표 메뉴는 오늘의 커피다. 이 밖에 스폐셜티커피, 카푸치노, 라겟옴라떼, 비엔나, 로얄밀크티 등을 맛볼 수 있다. 매장에서 매일 굽는 각종 베이커리도 판다. 대구 지하철 1호선 안지랑역과 파동IC에서 가깝다. 주변에는 앞산해넘이전망대와 먹자거리인 앞산맛둘레길과 안지랑곱창거리가 있다.",053-628-8877,,,없음,0,,12:00~21:00,"화요일, 수요일",오늘의 커피,"스폐셜티커피, 카푸치노, 라겟옴라떼, 비엔나, 로얄밀크티 등",,,가능,가능,,"화장실:남녀구분
",20170166135
스테이블모먼트,42759,,,대구광역시 달서구 조암남로32길 24,35.8188548730,128.5162682910,"스테이블모먼트는 대구광역시 달서구 대천동에 있다. 1층은 주차장과 이어지며 1층과 2층이 모두 카페인데, 1층은 우드톤이고 2층은 화이트 톤으로 꾸며 각 층의 느낌이 확연히 다르다. 공통적으로 고급스러운 분위기를 연출한 인테리어가 눈에 띈다. 내부에는 단체석이 있어 모임하기 좋다. 대표 메뉴는 싱글 오리진 에스프레소와 고급 우유가 만난 스테이블커피다. 이 밖에 아몬드크림라떼, 아메리카노, 크림라떼, 크림에스프레소 등을 맛볼 수 있다. 빵 종류가 다양하게 많아 선택의 폭이 넓고 브런치 메뉴를 선택할 수도 있다. 유천하이패스IC에서 가깝고, 인근에는 화원유원지, 월곡역사공원이 있다.",070-8805-6663,,,있음(무료),0,,매일 09:30~23:00 (라스트오더 22:30),연중무휴,스테이블커피,"아몬드크림라떼, 아메리카노, 크림라떼, 크림에스프레소 등",,,가능,가능,,"화장실:남녀구분
",20170182264
"엔엘리오카페, 베이커리, 레스토랑",42978,,,대구광역시 달성군 비슬로 1137,35.7335739489,128.4243481828,"엔엘리오카페, 베이커리, 레스토랑은 대구광역시 달성군 논공읍 남리에 있다. 해 질 녘 노을이 멋지다는 소문에 많은 사람이 찾는다. 내부에는 단체석이 마련되어 있어 각종 모임을 가지기 좋다. 대표 메뉴는 부드러운 카스테라 위에 생딸기와 생크림이 어우러진 생크림딸기케익이다. 카스테라 속에 초코 생크림을 넣은 초코생크림케익도 인기다. 이 밖에 생딸기타르트, 까망이, 카라멜마끼아또 등도 맛볼 수 있다. 온실과 원두막 형태의 야외테이블의 경우 반려견과 함께 즐길 수 있다. 야외테이블에 앉아있으면 달성보가 보인다. 북현풍(하이패스)IC에서 가깝고, 인근에 달성노을공원, 세계문화유산 도동서원이 있어 둘러보기 좋다.",053-616-7293,,,있음(무료),0,,"10:00~22:00 (라스트오더 21:00),  레스토랑 11:00~21:00, 브레이크 타임 15:00~17:00 (라스트오더 20:00)",연중무휴,생크림딸기케익,"초코생크림케익, 생딸기타르트, 까망이, 카라멜마끼아또 등",,,가능,가능,가능 (레스토랑),"화장실:남녀구분
",20200189746
레이틀리92,41070,,,대구광역시 동구 초례로 6,35.8756305871,128.7525153541,"레이틀리92는 대구광역시 동구 숙천동에 있다. 세련된 느낌의 외관과 고급스러운 인테리어가 눈에 띈다. 내부에는 단체석이 마련되어 있어 각종 모임에 적당하다. 무엇보다 4,000㎡ 규모의 대지 위에 나무가 가득 식재되어 있다는 점이 가장 큰 장점이다. 대표 메뉴는 베이컨과 알싸한 마늘이 올리브오일을 만난 레이틀리 에그볼 오일 파스타다. 푸짐한 버섯과 쫀득한 뇨끼가 어우러져 깊고 진한 맛을 내는 머쉬룸 크림 뇨끼, 통새우와 베이컨 등이 아낌없이 들어간 통새우 베이컨 필라프도 인기다. 이 밖에 유러피안 브런치 세트도 맛볼 수 있다. 브런치 메뉴의 경우 3시까지만 주문이 가능하다. 카페 내 IN BALI는 노키즈 존으로, 나머지 공간은 케어키즈존으로 운영하고 있다. 경산IC에서 가깝고, 인근에 금호강 안심습지, 반야월연꽃단지가 있다.",053-965-9290,,,있음(무료),0,,매일 10:00~22:00,연중무휴,레이틀리 에그볼 오일 파스타,"머쉬룸 크림 뇨끼, 유러피안 브런치 세트, 목살 큐브 스테이크, 통새우 베이컨 필라프 등",,,가능,,,"화장실:남녀구분
",20210161364
미소팔공한우,41000,,,대구광역시 동구 팔공산로 222,35.9953727470,128.6116355232,"미소팔공한우는 대구광역시 동구 덕곡동에 있다. 현대적인 외관과 깔끔한 인테리어가 눈에 띈다. 내부에는 단체석이 마련되어 있어 각종 모임에 적당하다. 대표 메뉴는 한우갈비살이다. 입구에서 고기를 구입해서, 상차림 비용을 추가해 구워 먹는 시스템이다. 이 밖에 한우꽃살, 한우살치살, 제비추리, 부채살, 안창살, 생삽겹살, 돼지갈비, 곰탕 등을 맛볼 수 있다. 한우가마솥 곰탕은 포장 판매도 한다. 외부에는 어린이를 위한 트램펄린과 수영장 등의 부대시설이 갖추어져 있다. 어른들을 위한 족구장도 마련되어 있다. 농림축산식품부가 인정한 안심식당이다. 파군재IC에서 가깝고, 인근에 팔공산도립공원, 대구동화사, 팔공산케이블카가 있어 연계 여행에 나서기 좋다.",053-985-3260,,,있음(무료),0,,매일 11:00~21:30,연중무휴,한우갈비살,"한우꽃살, 한우살치살, 제비추리, 부채살, 안창살, 생삽겹살, 돼지갈비 등",,,가능,가능,가능,"화장실:남녀구분
",19970160209
승정원한우,42162,,,대구광역시 수성구 들안로 73,35.8363769551,128.6164145407,"승정원한우는 대구광역시 수성구 상동에 있다. 고급스러운 외관과 깔끔한 분위기를 연출하는 인테리어가 눈에 띈다. 내부에는 단체석이 마련되어 있어 각종 모임을 하기 좋고, 어린이 놀이방도 갖추고 있다. 대표 메뉴는 꽃등심이다. 이 밖에 안창살, 갈빗살, 수원식 양념 왕갈비, 살치살, 경상도 육회 등을 맛볼 수 있다. 점심 특선으로 준비한 동인동식 한우 찜갈비, 육회 비빔밥 정식, 소고기 찌개 정식도 인기 메뉴이며 점심 특선은 매일 정오부터 3시까지 주문할 수 있다. 파동IC에서 가깝고, 인근에 아르떼 수성랜드, 수성유원지가 있어 연계 관광에 나서기 수월하다.",053-761-0909,,,있음/주차요금 무료,0,,11:30~22:30,연중무휴,꽃등심,"안창살, 갈비살, 수원식 양념 왕갈비, 살치살, 경상도 육회 등",,,가능,가능,가능,"화장실:남녀 구분
",20050174044
서민수산회,42271,,,대구광역시 수성구 달구벌대로641길 7,35.8410503310,128.7074702853,"서민수산회는 대구광역시 수성구 매호동에 있다. 깔끔한 외관과 인테리어가 눈에 띈다. 내부에는 단체석이 마련되어 있어 각종 모임을 하기 좋다. 대구광역시에서 최초로 자외선 살균 수족관을 설치한 곳이다. 생선회는 방짜유기에 담아 신선도를 유지한다. 대표 메뉴는 농어, 대물 참돔, 자연산참가자미가 나오는 금은동메달세트다. 이 밖에 모듬회, 멍게, 낙지, 백만장자 물회, 백만장자 회덮밥 등을 맛볼 수 있다. 대구 지하철 2호선 신매역과 수성IC에서 가깝다. 인근에는 아이니테마파크, 대구삼성라이온즈파크가 있어 연계 관광에 나서기 좋다.",053-793-1898,,,있음/주차요금 없음,0,,"11:30~22:30, 브레이크 타임 14:00~16:00",연중무휴,금은동메달세트(농어+대물참돔+자연산참가자미),"모듬회, 멍게, 낙지, 백만장자 물회, 백만장자 회덮밥 등",,,가능,가능,가능,"화장실:남녀 구분
",20020175690
살맛나는집,42134,,,대구광역시 수성구 희망로 137-1,35.8473367803,128.6139144558,"살맛나는집은 대구광역시 수성구 중동에 있다. 고풍스러운 멋을 풍기는 외관과 인테리어가 돋보인다. 내부에는 단체석이 마련되어 있어 각종 모임을 하기 좋다. 대표 메뉴는 백탄 참숯에 구워서 먹는 생 갈비살과 꽃등심이다. 이 밖에 토시살, 안창살 등 한우의 여러 부위를 맛볼 수 있다. 한정식 코스 요리도 인기다. 살맛나는밥상이란 메뉴를 주문하면 전복죽, 연어회, 수수전, 표고 탕수, 갈비찜, 대하구이, 꽃등심 스테이크 등이 상에 오른다. 점심특선 한정식코스 요리는 오후 3시 전까지 주문할 수 있다. 수성IC에서 가깝고, 인근에 대구어린이교통랜드, 국립대구박물관이 있다.",053-761-0008,,,있음(발레파킹)/주차요금 없음,0,,"11:30~22:00, 브레이크 타임 15:00~17:00",연중무휴,생 갈비살,"꽃등심, 토시살, 안창살, 좋은밥상, 살맛나는밥상 등",,,가능,가능,가능,"화장실:남녀 구분
",20010175089
호남원조식당,41870,,,대구광역시 서구 달구벌대로375길 26-1,35.8630064378,128.5710233535,"호남원조식당은 대구광역시 서구 내당동 소재 반고개무침회 골목에 있다. 1968년에 영업을 시작한 무침회 전문점이다. KBS 2TV 시사 교양 프로그램 생생 정보통에 출연한 바 있다. 깔끔한 외관과 인테리어가 돋보이며, 내부에는 단체석이 마련되어 있어 각종 모임을 하기 좋다.
대표 메뉴는 호남무침회다. 삶은 오징어와 소라, 무, 미나리 등의 채소, 고춧가루를 기본으로 한 매콤한 양념이 어우러졌다. 밥을 비벼서 먹어도 맛있고, 육전이나 납작만두를 곁들여도 별미다. 대구 지하철 2호선 반고개역과 서대구IC에서 가깝다. 인근에는 청라언덕, 대구근대역사관, 이월드가 있어 연계 여행에 나서기 쉽다.",053-557-5451,,,있음(무료),0,,"식사 11:00~22:00, 포장 08:00~22:00",연중무휴,호남무침회,"호남무침회육전set, 아나고무침, 가오리무침, 납작만두 등",,,가능,가능,가능,"화장실:남녀구분
",19870163042
룰리커피,42260,,,대구광역시 수성구 고모로 188,35.8565425061,128.6795556428,"룰리커피는 대구광역시 수성구 고모동에 있다. 이국적인 외관과 세련된 분위기를 연출하는 인테리어가 눈에 띈다. 내부에는 단체석이 마련되어 있어 각종 모임을 하기 좋다. 대표 메뉴는 에디오피아 빌로야 G1이다. 브라질 그란자 송 프란시스코 PN, 콜롬비아 포파얀 수프리모, 과테말라 라구나 데 아야르자, 인도네시아 만델링 G1 등도 맛볼 수 있다. 동대구IC에서 가깝고, 인근에 아이니테마파크, 수성패밀리파크, 국립대구박물관이 있다.",070-4671-6089,,,있음(무료),0,,매일 10:00~23:00,연중무휴,에디오피아 빌로야 G1,"브라질 그란자 송 프란시스코 PN, 콜롬비아 포파얀 수프리모, 과테말라 라구나 데 아야르자, 인도네시아 만델링 G1 등",,,가능,가능,,"화장실:남녀구분
",20190175744
르그랑팔레드 고바슨 수성점,42217,,,대구광역시 수성구 용학로 106-7수성스퀘어 1층,35.8244394704,128.6193062845,"르그랑팔레드 고바슨 수성점은 대구광역시 수성구 두산동에 있다. 수성못과 맞닿아 있어 멋진 풍경을 감상하며 음료 등을 즐길 수 있다. 현대적인 감각이 돋보이는 외관과 세련된 분위기를 연출하는 인테리어가 눈에 띈다. 내부에는 단체석이 마련되어 있어 각종 모임을 하기 좋다. 대표 메뉴는 드챔버이며, 고바 아메리카노, 과테말라 게이샤, 드아르 라떼, 발리에 라떼 등도 맛볼 수 있다. 대구 지하철 3호선 수성못역과 파동IC에서 가깝다. 인근에는 아르떼 수성랜드, 수성유원지가 있다.",053-768-3133,,,있음(무료),0,,매일 11:00~04:00,연중무휴,드챔버,"고바 아메리카노, 과테말라 게이샤, 드아르 라떼, 발리에 라떼 등",,,가능,가능,,"화장실:남녀구분
",20190176074
면장수,42174,,,대구광역시 수성구 무학로 105,35.8303582598,128.6201032722,"면장수 대구광역시 수성구 두산동에 있다. 모던한 멋을 풍기는 외관과 편안한 분위기를 연출하는 인테리어가 눈에 띈다. 내부에는 단체석이 마련되어 있어 각종 모임을 하기 좋고, 어린이 놀이방도 갖추어져 있다. 대표 메뉴는 장수칼국수다. 이 밖에 얼큰이칼국수, 들깨칼국수, 햅쌀떡국, 산채비빔밥, 돌솥비빔밥, 뚝배기불고기, 해물부추전, 한방삼겹보쌈 등을 맛볼 수 있다. 대구 지하철 3호선 수성못역과 파동IC에서 가깝다. 인근에는 아르떼 수성랜드, 수성유원지가 있다.",053-766-6114,,,"있음(발레파킹, 무료)",0,,"매일 11:00~22:00, 브레이크 타임 16:00~16:30",연중무휴,장수칼국수,"얼큰이칼국수, 들깨칼국수, 햅쌀떡국, 산채비빔밥, 해물부추전 등",,,가능,가능,가능,"화장실:남녀구분
",20000176481
산중식당,41007,,,대구광역시 동구 팔공산로185길 55,35.9901998692,128.6944728065,"산중식당은 대구광역시 동구 용수동에 있는 한식 전문 식당으로 1989년 대구광역시 향토음식점 제1호점으로 지정받은 곳이다. TV 프로그램에 소개된 맛집으로 대표 메뉴는 국내산 암퇘지로 만든 보쌈, 매년 4~5월에 채취해 급속 냉동 보관해 두고 1년 내내 사용하는 곤드레가마솥밥이다. 세트 메뉴로 “사랑담다”와 “가득담다”가 있어 취향대로 골라 먹을 수 있다. 불쭈꾸미 볶음, 가오리무침, 모둠보쌈, 묵사발도 맛있다. 팔공산 케이블카 입구에 있어 찾기 쉽고 인근에 팔공산도립공원, 대구동화사 등이 있다.",053-982-0077,,,있음 / 주차요금 무료,0,,11:30~21:00 (브레이크 타임 15:30~17:00),연중무휴,사랑담다,"가득담다, 불쭈꾸미볶음, 보쌈고기, 묵사발 등",,,가능,가능,,"화장실:남녀 구분
",19870160054
풀하우스,41943,,,대구광역시 중구 달구벌대로 2109-21,35.8663453701,128.5938823582,"1982부터 40년간 운영되어온 반월당 터줏대감 레스토랑이다.  mbc 시시각각 맛집 인테리어로 소개된 곳으로 대표메뉴는 함박스테이크, 돈까스이다. 인테리어는 대구 유명 건축가 박재봉 선생의 대표작이다. 90년대 인테리어로 많은 분들의 사랑을 받고있다.  메인메뉴 주문 시 샐러드바 디저트, 음료와 커피 무한리필이며 가성비로 즐길 수 있다. 위치는 옛 화방골목으로 반월당 12번 출구로 나오면 더욱 쉽게 찾을 수 있다.",053-424-2210,,,,0,,11:00 ~ 01:00,일요일,돈까스 풀코스,돈까스 풀코스 / 함박스테이크 풀코스 / 목살스테이크 풀코스 외,,,가능,가능,전화문의,,19910158082
티아이티에프,41007,,,대구광역시 동구 팔공산로 1169,35.9882833871,128.6927119045,"티아이티에프는 대구광역시 동구 용수동에 있다. 이국적인 외관과 모던한 분위기를 연출하는 인테리어가 돋보인다. 내부에는 단체석이 마련되어 있어 각종 모임을 하기 좋다. 유명 작가의 개인전 등 전시 행사를 개최하는 갤러리도 함께 운영 중이다. 대표 메뉴는 브루잉커피다. 이 밖에 카페라떼, 아인슈페너 등을 맛볼 수 있다. 베이커리에서는 당일 판매를 원칙으로 매일 빵을 만들고 있으며, 팽도르외 마스카포네 티라미수 등 여러 가지 빵을 판다. 파군재 IC에서 가깝고, 인근에 팔공산도립공원, 팔공산자동차극장씨네80, 대구 동화사가 있다.",053-985-7755,,,있음 / 주차요금 무료,0,,11:00~23:00,연중무휴,브루잉커피,"팽도르, 카페라떼, 마스카포네 티라미수, 아인슈페너 등",,,가능,가능,,"화장실:남녀구분
",20150160517
스테이블모먼트,41528,,,대구광역시 북구 복현로8길 19-36,35.8973896672,128.6258203454,"스테이블모먼트는 대구광역시 북구 복현동에 있다. 모던한 멋이 풍기는 외관과 세련된 분위기의 인테리어가 눈에 띈다. 내부에는 단체석이 마련되어 있어 각종 모임을 하기 좋다. 대표 메뉴는 아몬드크림라떼다. 이 밖에 스테이블커피, 아메리카노, 에스프레소, 크림라떼 등을 맛볼 수 있다. 당일 생산하고 남은 것은 당일 폐기하는 각종 빵도 판다. 불로 IC에서 가깝고, 인근에 공항교강변공원, 대구평화시장닭똥집골목, 대구아쿠아리움이 있다.",070-8805-9907,,,있음 / 주차요금 무료,0,,10:00~22:30,연중무휴,아몬드크림라떼,"스테이블커피, 아메리카노, 에스프레소, 크림라떼 등",,,가능,가능,,"화장실:남녀구분
",20190169873
삼수장어 두산오거리점,42175,,,대구광역시 수성구 무학로 123,35.8304138458,128.6220864292,"삼수장어 두산오거리점은 대구광역시 수성구 두산동에 있다. 현대적인 외관과 차분한 분위기를 연출하는 인테리어가 눈에 띈다. 대표 메뉴는 평일 오후 3시까지만 주문할 수 있는 점심 특선 장어정식이다. 장어구이, 된장찌개, 여러 가지 반찬이 상에 오른다. 장어덮밥과 장녹수탕이 함께 나오는 덮밥정식도 점심 특선 메뉴로 인기다. 이 밖에 매운 해물 야끼소바, 삼수소면 등을 맛볼 수 있다. 대구 지하철 3호선 수성못역과 파동 IC에서 가깝다. 인근에는 아르떼 수성랜드, 수성유원지가 있다.",053-781-3300,,,있음 / 주차요금 무료,0,,11:30~22:00(브레이크 타임 15:30~17:00),연중무휴,장어정식,"덮밥정식, 매운 해물 야끼소바, 장녹수탕, 삼수소면 등",,,가능,가능,예약 가능,"화장실:남녀구분
",20080174371
초이스엠,41000,,,대구광역시 동구 팔공산로 260,35.9929286227,128.6139492759,"초이스엠은 대구광역시 동구 덕곡동에 있는 베이커리 카페다. 현대적인 감각이 돋보이는 외관과 고급스러운 분위기를 연출하는 인테리어가 눈에 띈다. 내부에는 단체석이 마련되어 있어 각종 모임을 하기 좋다. 모든 빵은 첨가물 없이 천연 발효로 만들며, 국산 쌀가루 70%를 넣는다. 대표 메뉴는 27겹 몽블랑이다. 이 밖에 호두단팥빵, 허니토스트, 수제초코파이, 카푸치노 등을 맛볼 수 있다. 파군재 IC에서 가깝고, 인근에 팔공산도립공원, 팔공산자동차극장씨네80, 대구 동화사가 있다.",053-983-7272,,,있음 / 주차요금 무료,0,,10:00~21:00,연중무휴,27겹 몽블랑,"호두단팥빵, 허니토스트, 수제초코파이, 카푸치노 등",,,가능,가능,,"화장실:남녀구분
",20090160257
수다레스토랑,41007,,,대구광역시 동구 동화사2길 21-10,35.9910887297,128.6983529952,"수다레스토랑은 대구광역시 동구 용수동에 있다. 1층 카페, 2층 레스토랑으로 이루어졌으며, 내부에는 단체석이 있어 각종 모임을 하기 좋다. 반려동물과 함께 입장할 수 있으며, 좌석은 일반 손님과 분리되어 있다. 대표 메뉴는 오징어 먹물이 들어가는 매콤하고 쫄깃한 스퀴드잉크파스타다. 부드럽게 녹는 소고기에 수제 와인 소스를 곁들인 소고기 스테이크, 돼지고기와 수제소스가 어우러진 목살 팔공산스테이크도 인기다. 이 밖에 해산물을 가득 넣어 바다의 풍미를 즐길 수 있는 씨푸드크림파스타 등도 맛볼 수 있다. 파군재 IC에서 가깝고, 인근에 팔공산도립공원, 팔공산자동차극장씨네80, 대구 동화사가 있다.
※ 반려동물 동반 가능(목줄, 배변봉투 지참)",053-982-1833,,,있음 / 주차요금 무료,0,,11:30~21:00(주말 브레이크 타임 16:00~17:00),연중무휴,스퀴드잉크파스타 or 리조또,"소고기 스테이크, 타이거쉬림프로제파스타 or 리조또, 목살 팔공산스테이크, 씨푸드크림파스타 등",,,가능,가능,예약 가능,"화장실:남녀구분
",20130160206
인스퍼레이션디동촌유원지,41170,,,대구광역시 동구 효동로6길 57,35.8832972478,128.6490909113,"인스퍼레이션디동촌유원지는 대구광역시 동구 효목동에 있다. 모던한 멋을 풍기는 외관과 깔끔한 분위기를 연출하는 인테리어가 돋보인다. 내부에는 단체석이 마련되어 있어 각종 모임을 하기 좋다. 창밖으로 보이는 숲의 풍경도 멋지다. 대표 메뉴는 아메리카노다. 이 밖에 카페라테, 바닐라라테, 딸기라테, 아인슈페너, 바닐라 크로플 등을 맛볼 수 있다. 대구 지하철 1호선 동촌역과 동대구 IC에서 가깝다. 인근에는 대구아쿠아리움, 해맞이공원, 동촌유원지가 있다.",053-952-7711,,,있음 / 주차요금 무료,0,,10:30~23:00,연중무휴,아메리카노,"카페라테, 바닐라라테, 딸기라테, 아인슈페너, 바닐라크로플 등",,,가능,가능,,"화장실:남녀구분
",20180161902
앞산게장,42490,,,대구광역시 남구 앞산순환로 4731층,35.8324322209,128.5764403928,"앞산게장은 대구광역시 남구 대명동 소재 앞산맛둘레길 인근에 있는 무한리필 음식점이다. 깔끔한 외관과 내부 인테리어가 눈에 띈다. 대표 메뉴는 국내산 간장 꽃게장이다. 이 밖에 국내산 양념 꽃게장, 게살비빔밥, 듬뿍 전복죽, 듬뿍 전복밥, 전복+새우장 등을 맛볼 수 있다. 무한리필을 누릴 수 있는 시간은 오전 11시 30분부터 오후 3시까지, 오후 5시부터 8시까지 하루 두 번이다. 파동IC에서 가깝고, 인근에 앞산해넘이전망대, 앞산카페거리, 안지랑곱창거리가 있어 연계 여행에 나서기 수월하다.",053-656-8949,,,있음(무료),0,,"매일 11:30~21:30, 브레이크 타임 15:30~17:00",연중무휴,국내산 간장 꽃게장,"국내산 양념 꽃게장, 게살비빔밥, 듬뿍 전복죽, 듬뿍 전복밥, 전복+새우장 등",,,가능,가능,,"화장실:있음
",20050166078
지오네 키친,42489,,,대구광역시 남구 현충로 21,35.8347264603,128.5794289544,"지오네키친은 대구광역시 남구 대명동에 있다. 현대적인 감각이 돋보이는 외관과 고급스러운 분위기를 연출하는 인테리어가 눈에 띈다. 내부에는 단체석이 있어 각종 모임을 하기 좋다. 대표 메뉴는 타이거새우, 감자, 바질페스토를 넣어 만든 새우제노베제다. 여러 가지 해산물을 아낌없이 넣어 만든 깔끔하고 담백한 나폴리풍 해산물 오일 파스타도 인기다. 이 밖에 쫄깃하고 신선한 맛으로 유명한 마르게리타 피자 등도 맛볼 수 있다. 대구 지하철 1호선 현충로역과 파동IC에서 가깝고 인근에 앞산해넘이전망대, 앞산카페거리, 안지랑곱창거리가 있다.",053-426-3992,,,있음(무료),0,,"매일 11:30~22:00, 브레이크 타임 16:10~17:00",연중무휴,새우제노베제,"나폴리풍 해산물 오일 파스타, 마르게리타 피자, 카치오에페페, 페스카토레 등",,,가능,가능,가능,"화장실:있음
",20180167038
째미핑거,41007,,,대구광역시 동구 팔공산로 1165-7,35.9888361031,128.6927563294,"째미핑거는 대구광역시 동구 용수동에 있다. 외관과 인테리어를 마주하면 북유럽이 연상된다. 특유의 색감과 더불어 아기자기한 소품이 돋보인다. 내부에는 단체석이 마련되어 있어 각종 모임을 하기 좋다. 대표 메뉴는 째미크림라떼다. 이 밖에 피넛쨈몬드라떼, 아메리카노, 카페라떼, 아이스크림라떼 등을 맛볼 수 있다. 주차 공간은 매장에 2대, 매장 앞 골목에 8대를 주차할 수 있다. 주말에는 대구시민안전테마파크에 주차하면 된다. 파군재 IC에서 가깝고, 인근에 팔공산도립공원, 팔공산자동차극장씨네80, 대구 동화사가 있다.",070-8873-2254,,,있음 / 주차요금 무료,0,,11:00~22:00,"매달 2, 4번째 화요일",째미크림라떼,"피넛쨈몬드라떼, 아메리카노, 카페라떼, 아이스크림라떼 등",,,가능,가능,,,20200161709
커들포드,41016,,,대구광역시 동구 팔공로 1334,35.9593650086,128.7232600252,"커들포드는 대구광역시 동구 진인동에 있는 베이커리 카페다. 모던한 느낌의 외관과 깔끔한 분위기의 인테리어가 눈에 띈다. 내부에는 단체석이 마련되어 있어 각종 모임을 하기 좋다. 2층으로 이루어져 있는데, 테라스가 있는 2층은 안전사고 방지를 위해 14세 이하는 입장할 수 없는 노키즈존으로 운영된다. 외부에 마련된 정원에는 모래 놀이터가 있다. 대표 메뉴는 에스프레소다. 이 밖에 아메리카노, 카페라떼, 바닐라라떼, 아몬드라떼, 인도네시아 만델링 등을 맛볼 수 있다. 파군재 IC에서 가깝고, 인근에 팔공산도립공원, 신숭겸장군유적지, 대구섬유박물관이 있다.
※ 반려동물 동반 불가",010-8667-2566,,,있음 / 주차요금 무료,0,,10:00~23:00,연중무휴,에스프레소,"아메리카노, 카페라떼, 바닐라라떼, 아몬드라떼, 인도네시아 만델링 등",,,가능,가능,,"화장실:남녀구분
",20200161801
카펠라,42490,,,대구광역시 남구 앞산순환로 449,35.8316128248,128.5740434042,"카펠라는 대구광역시 남구 대명동에 있다. 고급스러운 느낌의 외관과 세련되고 아늑하게 꾸며진 인테리어가 돋보인다. 통창 너머로 계절마다 바뀌는 앞산의 풍경을 감상하기 좋다. 야간에는 3층 루프탑에 올라 멋진 야경을 벗 삼아 음료나 디저트를 즐길 수 있다. 대표 메뉴는 에스프레소이며, 이 밖에 아메리카노, 바닐라빈라떼, 연유라떼, 더치아메리카노 등을 맛볼 수 있다. 파동IC에서 가깝고, 주변에 앞산해넘이전망대와 먹자거리인 앞산맛둘레길과 안지랑곱창거리가 있어 연계 여행에 나서기 쉽다.",010-3633-9046,,,있음(무료),0,,"평일 10:00~22:00, 주말 10:00~23:00",연중무휴,에스프레소,"아메리카노, 바닐라빈라떼, 연유라떼, 더치아메리카노 등",,,가능,가능,,"화장실:있음
",20190167346
탑골식당,41007,,,대구광역시 동구 동화사2길 21-71층,35.9912775903,128.6980057983,"탑골식당은 대구광역시 동구 용수동에 있다. 깔끔한 외관과 인테리어가 눈에 띈다. 내부에는 단체석이 마련되어 있어 각종 모임을 하기 좋다. 펜션, 노래방, 회의실, 바비큐 등 부대시설도 알차다. 대표 메뉴는 시래바정식으로 참나무에 훈연한 3가지 바비큐 소시지, 팔공산에서 재배한 각종 산나물 등이 상에 오른다. 바닷바람에 말린 시래기로 만든 시래기밥, 고화력으로 구운 오리훈제 등이 나오는 시래오정식도 인기다. 이 밖에 참나무장작바베큐정식, 유황오리훈제정식, 쫄깃담백 흑토종닭백숙 등도 맛볼 수 있다. 파군재 IC에서 가깝고, 인근에 팔공산도립공원, 팔공산자동차극장씨네80, 대구 동화사가 있다.
※ 반려동물 동반 가능(목줄, 배변봉투 지참)",053-981-4771,,,있음 / 주차요금 무료,0,,11:30~21:00,월요일,시래바정식,"시래오정식, 참나무장작바베큐정식, 유황오리훈제정식, 쫄깃담백 흑토종닭백숙 등",,,가능,가능,예약 가능,"화장실:남녀구분
",20050160044
슬로우스톤,42991,,,대구광역시 달성군 휴양림길 109,35.6880054202,128.4965847435,"슬로우스톤은 대구광역시 달성군 유가읍 용리에 있다. 비슬산과 맞닿아 있어 주변 경관이 훌륭하다. 외관과 인테리어는 모던한 분위기를 풍긴다. 내부에는 단체석이 있어 각종 모임을 하기 좋다. 대표 메뉴는 스톤슈페너다. 이 밖에 바질페스토 냉카펠리니, 아메리카노, 피치선셋, 잉글리쉬 브렉퍼스트 등을 맛볼 수 있다. 브런치 메뉴는 오후 4시까지 주문할 수 있다. 북현풍(하이패스) IC에서 가깝고, 인근에 비슬산자연휴양림, 비슬산치유의숲이 있다.",053-614-5498,,,있음/주차요금 없음,0,,10:30~21:00,연중무휴,스톤슈페너,"바질페스토 냉카펠리니, 아메리카노, 피치선셋, 잉글리쉬 브렉퍼스트 등",,,가능,가능,,"화장실:남녀 구분
",19960188164
트리팜,41000,,,대구광역시 동구 서촌로 133,35.9859295611,128.6217876698,"트리팜은 대구광역시 동구 송정동에 있다. 소나무가 우거진 숲속에 있어 자연 친화적인 느낌이다. 모던한 느낌의 외관과 깔끔한 분위기를 연출하는 인테리어도 돋보인다. 내부에는 단체석이 마련되어 있어 각종 모임을 하기 좋다. 대표 메뉴는 멜팅 버터 토스트다. 이 밖에 아메리카노, 라떼, 바닐라 라떼, 플랫화이트, 아포가토 등을 맛볼 수 있다. 파군재 IC에서 가깝고, 인근에 팔공산도립공원, 신숭겸장군유적지, 대구섬유박물관이 있다.
※ 반려동물 동반 가능(목줄, 배변봉투 지참)",053-986-2220,,,있음 / 주차요금 무료,0,,11:00~22:00,연중무휴,멜팅 버터 토스트,"아메리카노, 라떼, 바닐라 라떼, 플랫화이트, 아포가토 등",,,가능,가능,,"화장실:남녀구분
",20140160679
오퐁드부아,42939,,,대구광역시 달성군 주리2길 104,35.7524614839,128.6184944645,"오퐁드부아는 대구광역시 달성군 가창면 주리에 있다. 외관은 한옥으로 지어져 고풍스러운 멋을 풍긴다. 내부는 한옥 양식과 현대적인 인테리어가 공존하고 있으며, 단체석이 있어 각종 모임을 하기 좋다. 외부 널찍한 정원에는 프라이빗한 공간이 마련되어 있다. 대표 메뉴는 에스프레소다. 이 밖에 바게트, 깜바뉴, 감자크림 치아바타, 발로나 쇼콜라 파운드 등도 맛볼 수 있다. 파동 IC에서 가깝고, 인근에 워터파크 스파밸리가 있다.
※반려동물 동반 가능(목줄, 배변봉투 지참)",0507-1348-0101,,,있음/주차요금 없음,0,,"평일 11:00~21:00, 주말 11:00~22:00",연중무휴,에스프레소,"바게트, 깜바뉴, 감자크림 치아바타, 발로나 쇼콜라 파운드 등",,,가능,,,,19890188029
제니아빈,42714,,,대구광역시 달서구 성서공단로15길 102층,35.8358719241,128.4908061747,"제니아빈은 대구광역시 달서구 호림동 소재 모다아울렛 대구점 인근에 있다. 1,200㎡ 규모로 고급스러운 인테리어가 돋보인다. 내부에는 단체석이 있어 각종 모임을 하기 좋다. 대표 메뉴는 아포가토이며, 이 밖에 팥빙수, 레몬에이드, 자몽에이드, 달고나커피, 연유라떼 등도 맛볼 수 있다. 달서IC에서 가깝고, 주변에 강정보디아크광장, 달성습지 생태학습관이 있어 연계 여행에 나서기 수월하다.",010-2020-1164,,,있음(무료),0,,매일 09:00~23:00,연중무휴,아포가토,"팥빙수, 레몬에이드, 자몽에이드, 달고나커피, 연유라떼 등",,,가능,가능,,"화장실:있음
",20190183673
하이브,41001,,,대구광역시 동구 파계로 653,35.9884628656,128.6357280360,"하이브는 대구광역시 동구 중대동에 있다. 카페에 발을 들이면 자연 친화적인 분위기를 느낄 수 있다. 모던한 외관과 깔끔한 분위기를 연출하는 인테리어가 눈에 띈다. 내부에는 단체석이 마련되어 있어 각종 모임을 하기 좋다. 루프탑에 오르면 멋진 풍경이 펼쳐진다. 대표 메뉴는 롱블랙(아메리카노)이다. 이 밖에 메이플, 초콜릿, 시나몬이 어우러진 아이스크림 크로플, 호밀빵에 소시지와 브라운 치즈를 넣은 아보카도 브런치, 싱가포르 전통 햄으로 만든 카야 토스트 등도 맛볼 수 있다. 파군재 IC에서 가깝고, 인근에 팔공산도립공원, 신숭겸장군유적지, 대구섬유박물관이 있다.",010-3444-5240,,,있음 / 주차요금 무료,0,,10:30~22:00,연중무휴,롱블랙(아메리카노),"카페라떼, 아이스크림 크로플, 아보카도 브런치, 카야 토스트 등",,,가능,가능,,"화장실:남녀구분
",20200161647
유가제빵소,43024,,,대구광역시 달성군 테크노중앙대로1길 35,35.6729841578,128.4562192616,"유가제빵소는 대구광역시 달성군 유가읍 유곡리에 있다. 현대적인 감각이 돋보이는 외관과 고급스러운 분위기를 연출하는 인테리어가 눈에 띈다. 내부에는 단체석이 마련되어 있어 각종 모임을 하기 좋다. 대표 메뉴는 정통 치아바타, 국내산 수제팥, 프랑스산 고메버터가 조화롭게 어우러진 앙버터다. 이 밖에 몽블랑, 쌀 단팥빵, 에스프레소, 아메리카노, 카페라떼 등을 맛볼 수 있다. 북현풍(하이패스) IC에서 가깝고, 인근에 비슬산자연휴양림, 비슬산치유의숲이 있다.",053-611-0040,,,,0,,10:00~21:00,"월요일. 단, 월요일이 공휴일일 경우 정상 영업, 익일 휴무",앙버터,"몽블랑, 쌀단팥빵, 에스프레소, 아메리카노, 카페라떼 등",,,,,,,20210189094
쿄우다이,42786,,,대구광역시 달서구 월배로46길 72킹스빌 1층,35.8158084062,128.5386441821,"쿄우다이는 대구광역시 달서구 상인동에 있다. 일본 감성이 느껴지는 외관과 인테리어가 눈에 띈다. 대표 메뉴는 여러 종류의 초밥 20개를 비롯해 면류, 새우튀김 등이 나오는 모듬초밥 2인 세트다. 이 밖에 연어세트, 돈가스세트, 돈코츠라멘, 쇼우라멘, 우동, 냉모밀 등을 맛볼 수 있다. 대구 지하철 1호선 상인역과 남대구IC에서 가깝다. 인근에는 월곡역사공원, 앞산해넘이전망대가 있다.",053-629-7333,,,있음,0,,"매일 11:30~21:30, 브레이크 타임 14:30~16:30",연중무휴,모듬초밥 2인 세트,"연어세트, 돈가스세트, 돈코츠라멘, 쇼우라멘, 우동, 냉모밀 등",,,가능,가능,,,20160166065
센도리,42173,,,대구광역시 수성구 들안로 38,35.8331606685,128.6172839979,"센도리는 대구광역시 수성구 두산동에 있다. 현대적인 감각이 돋보이는 외관과 고급스러운 분위기를 연출하는 인테리어가 눈에 띈다. 대표 메뉴는 랍스터 오븐구이를 메인으로 구성된 런치특선A와 B다. 이 밖에 일반코스A와 B, 패밀리코스, 로얄패밀리 코스 등을 맛볼 수 있다. 대구 지하철 3호선 수성못역과 파동 IC에서 가깝다. 인근에는 아르떼 수성랜드, 수성유원지가 있다.",053-765-4200,,,있음 / 주차요금 무료,0,,11:30~22:00(평일 브레이크 타임 15:00~17:00),연중무휴,런치특선A,"런치특선B, 일반코스A, 일반코스B, 패밀리코스 등",,,가능,가능,,"화장실:남녀구분
",20000176591
자연충만,42967,,,대구광역시 달성군 마비정길 163,35.7828814807,128.5334538837,"자연충만은 대구광역시 달성군 화원읍 본리리에 있다. 카페 명칭처럼 자연 그대로를 만끽할 수 있는 공간이 있다. 모던한 분위기의 외관과 인테리어도 눈에 띈다. 내부에는 단체석이 있어 각종 모임을 하기 좋다. 대표 메뉴는 고소한 견과류의 맛을 느낄 수 있는 아메리카노다. 부드러운 우유와 고소한 원두가 어우러진 카페라떼도 인기다. 이 밖에 리치 헤이즐넛 라떼, 수제 바닐라빈 시럽 라떼, 쑥라떼 등도 맛볼 수 있다. 화원옥포 IC에서 가깝고, 인근에 화원자연휴양림이 있다.
※반려동물 동반 가능(목줄, 배변봉투 지참)",053-552-8000,,,있음/주차요금 없음,0,,11:00~20:30,연중무휴,아메리카노,"카페라떼, 리치 헤이즐넛 라떼, 수제 바닐라빈 시럽 라떼, 쑥라떼 등",,,가능,가능,,"화장실:남녀 구분
",20210189142
마르텐사이트,42902,,,대구광역시 달성군 하빈로 363,35.8998526200,128.4392033979,"마르텐사이트는 대구광역시 달성군 하빈면 현내리에 있다. 카페에 들어서면 정원 곳곳을 꾸미고 있는 다양한 미술 작품이 시선을 붙든다. 모던한 분위기로 꾸며진 내부에는 단체석이 있어 각종 모임을 하기 좋다. 통창 너머로는 정겨운 시골 풍경이 펼쳐진다. 대표 메뉴는 아인슈페너다. 이 밖에 오레몽 에이드, 아메리카노, 카페라떼, 크림카페모카, 바닐라라떼 등을 맛볼 수 있다. 북다사IC에서 가깝고, 인근에 마천산산림욕장, 대한불교조계종 불은사가 있다.
※ 반려동물 동반가능(목줄, 배변봉투 지참)",010-8079-7547,,,있음(무료),0,,매일 10:30~21:30,연중무휴,아인슈페너,"오레몽 에이드, 아메리카노, 카페라떼, 크림카페모카, 바닐라라떼 등",,,가능,가능,,"화장실:있음
",20190189677
숨쉬는순두부 본점,42173,,,대구광역시 수성구 들안로 44,35.8337550439,128.6171923228,"숨쉬는순두부 본점은 대구광역시 수성구 두산동에 있다. 현대적인 감각이 돋보이는 외관과 고급스러운 분위기를 연출하는 인테리어가 눈에 띈다. 대표 메뉴는 대게내장순두부다. 매일 국내산 콩으로 만드는 순두부와 대게 내장이 듬뿍 들어갔다. 이 밖에 얼큰한 국물이 일품인 짬뽕순두부, 국내산 콩으로 직접 갈아 만든 여름 별미 콩국수, 두부, 채소, 돼지고기가 어우러진 돼지두부두루치기, 매일 직접 삶은 돼지고기와 두부를 맛볼 수 있는 두부수육 등도 맛볼 수 있다. 대구 지하철 3호선 수성못역과 파동 IC에서 가깝다. 인근에는 아르떼 수성랜드, 수성유원지가 있다.",053-783-0092,,,있음 / 주차요금 무료,0,,10:30~22:00,연중무휴,대게내장순두부,"짬뽕순두부, 콩국수, 돼지두부두루치기, 두부수육 등",,,가능,가능,예약 가능,"화장실:남녀구분
",20000175340
스위치온,42932,,,대구광역시 달성군 헐티로11길 35,35.7881515923,128.6021699114,"스위치온은 대구광역시 달성군 가창면 오리에 있다. 평일에는 카페로 영업하고, 주말에는 스몰 웨딩 예식장으로 운영된다. 이 덕분에 카페 자체가 포토존이다. 외관과 내부는 모던한 느낌이고, 외부 공간은 자연 친화적인 분위기다. 대표 메뉴는 계절에 어울리는 디저트다. 이 밖에 아메리카노, 카페라떼, 스위치 화이트, 오늘의 드립커피 등을 맛볼 수 있다. 파동 IC에서 가깝고, 인근에 워터파크 스파밸리가 있다.
※반려동물 동반 가능(목줄, 배변봉투 지참)",053-766-7766,,,있음/주차요금 없음,0,,"월~수 11:00~18:30, 목 11:00~17:00",금~일,계절에 어울리는 디저트,"아메리카노, 카페라떼, 스위치 화이트, 오늘의 드립커피 등",,,가능,,,"화장실:남녀 구분
",19840188065
메르헨카페,42976,,,대구광역시 달성군 성산로 12811층,35.7610703665,128.3984830390,"메르헨카페는 대구광역시 달성군 논공읍 위천리에 있다. 모던한 분위기의 외관과 인테리어가 눈에 띈다. 내부에는 단체석이 있어 각종 모임을 하기 좋다. 널찍한 정원에는 프라이빗한 공간이 있다. 대표 메뉴는 에그타르트다. 이 밖에 로제대파빵, 에스프레소, 아메리카노, 카페라떼, 카페모카 등도 맛볼 수 있다. 동고령 IC에서 가깝고, 인근에 달성노을공원, 세계문화유산 도동서원이 있다.",053-214-4017,,,있음(무료),0,,09:30~21:30,"매달 2, 4번째 월요일",에그타르트,"로제대파빵, 에스프레소, 아메리카노, 카페라떼, 카페모카 등",,,가능,가능,,"화장실:있음
",20210189441
아라한참치,42163,,,대구광역시 수성구 들안로 41,35.8334606145,128.6162229719,"아라한참치는 대구광역시 수성구 상동에 있다. 현대적인 감각이 돋보이는 외관과 고급스러운 분위기를 연출하는 인테리어가 눈에 띈다. 참치는 새치 종류가 아닌 참다랑어를 주로 쓴다. 대표 메뉴는 많은 사람이 선호하는 참치로 구성한 스폐셜코스다. 눈다랑어의 뱃살, 속살, 머릿살, 황새치의 뱃살, 참다랑어 뱃살이 나온다. 이 밖에 골드코스, 실장코스, 명가참치, 아라한참치 등을 맛볼 수 있다. 파동 IC에서 가깝고, 인근에 아르떼 수성랜드, 수성유원지가 있어 연계 관광에 나서기 수월하다.",053-762-6633,,,있음 / 주차요금 무료,0,,14:00~24:00,연중무휴,스폐셜코스,"골드코스, 실장코스, 명가참치, 아라한참치 등",,,가능,가능,예약 가능,"화장실:남녀구분
",20050174082
카페비슬,42990,,,대구광역시 달성군 음동길 201,35.7025648387,128.4939734615,"카페비슬은 대구광역시 달성군 유가읍 양리에 있다. 모던한 멋을 풍기는 외관과 고급스러운 인테리어가 눈에 띈다. 1층, 2층, 루프탑으로 이루어져 있으며, 내부에는 포토존, 단체석 등이 있다. 외부 정원에는 파라솔, 분수대, 수영장, 캠핑 바비큐 시설 등이 설치되어 있다.
대표 메뉴는 비슬 야외 바비큐다. 이 밖에 브런치 플레이트, 각종 베이커리, 아메리카노 등 여러 가지 음료를 맛볼 수 있다. 북현풍 IC에서 가깝고, 인근에 비슬산자연휴양림, 비슬산치유의숲이 있다.
※반려동물 동반 가능(목줄, 배변봉투 지참)",053-615-0696,,,있음/주차요금 없음,0,,11:00~22:00,연중무휴,비슬 야외 바비큐,"브런치 플레이트, 각종 베이커리, 여러 가지 음료 등",,,가능,가능,가능,"화장실:남녀 구분
",20190189797
마고플레인 아양점,41051,,,대구광역시 동구 해동로 107,35.8903963138,128.6420218916,"마고플레인 아양점은 대구광역시 동구 지저동에 있다. 고급스러운 멋을 풍기는 외관과 차분한 느낌의 인테리어가 돋보인다. 내부에는 단체석이 있어 각종 모임을 하기 좋다. 무엇보다 창밖으로 펼쳐지는 풍경이 훌륭하다는 장점을 지녔다. 대표 메뉴는 시기별로 가장 좋은 원두만 선택해 만드는 아메리카노다. 파인애플에 코코넛 크림이 더해져 상큼하고 목 넘김이 부드러운 파인코코 글레이셔, 매일 직접 찐 단호박만을 넣어 만든 단호박라떼도 인기다. 이 밖에 에티오피아 베레게티 게이샤, 콜롬비아 나리뇨 데리비 등을 맛볼 수 있다. 대구 지하철 1호선 아양교역과 팔공산 IC에서 가깝다. 인근에는 옹기종기행복마을, 국립신암선열공원이 있다.",053-986-2500,,,있음/주차요금 없음,0,,08:00~24:00,연중무휴,아메리카노,"파인코코 글레이셔, 단호박라떼, 에티오피아 베레게티 게이샤, 콜롬비아 나리뇨 데리비 등",,,가능,가능,,"화장실:남녀 구분
",20200161232
온기정,42203,,,대구광역시 수성구 수성못6길 91층,35.8276558471,128.6233141757,"온기정은 대구광역시 수성구 두산동에 있다. 이국적인 멋이 풍기는 외관과 세련된 인테리어가 눈에 띈다. 내부에는 단체석이 마련되어 있어 각종 모임을 하기 좋다. 대표 메뉴는 바삭하고 고소한 텐동이다. 스테이크와 달걀 고명이 올라간 븟카테우동, 부드러운 스테이크를 올려 만든 스테키동도 인기다. 이 밖에 카이센동, 사케동, 에미텐동 등을 맛볼 수 있다. 대구 지하철 3호선 수성못역과 파동 IC에서 가깝다. 인근에는 아르떼 수성랜드, 수성유원지가 있다.",053-259-0093,,,있음 / 주차요금 무료,0,,11:30~21:30(브레이크 타임 14:50~16:00),연중무휴,텐동,"븟카테우동, 스테키동, 카이센동, 사케동, 에미텐동 등",,,가능,가능,예약 가능,"화장실:남녀구분
",20150174716
메종듀미디,41000,,,대구광역시 동구 서촌로21길 11,35.9835437630,128.6240903116,"메종듀미디는 대구광역시 동구 송정동에 있다. 현대적인 감각의 외관과 고급스러운 분위기를 연출하는 인테리어가 눈에 띈다. 내부에는 단체석이 있어 각종 모임을 하기 좋다. 2층 테라스에서는 탁 트인 풍경을 감상할 수 있다. 대표 메뉴는 수제 먹물 치아바타 듀 미디다. 매장에서 직접 구운 수제 먹물 치아바타로 만든 브런치며, 주문 시 아메리카노를 반값에 제공한다. 이 밖에 카페라떼, 바닐라라뗴, 카푸치노, 카라멜 마끼아또 등을 맛볼 수 있다. 파군재 IC에서 가깝고, 인근에 신숭겸장군유적지, 대구섬유박물관이 있다.",053-986-0943,,,있음/주차요금 없음,0,,"10:30~23:00, 브런치 11:30~17:30",연중무휴,수제 먹물 치아바타 듀 미디,"아메리카노, 카페라떼, 바닐라라뗴, 카푸치노, 카라멜 마끼아또 등",,,가능,가능,,"화장실:남녀 구분
",20190161646
브런치달랏,41020,,,대구광역시 동구 팔공로 400-6,35.9344524918,128.6450676145,"브런치달랏은 대구광역시 동구 봉무동에 있다. 모던한 분위기의 외관과 인테리어가 돋보이는 카페다. 다양한 음료는 물론, 베이커리와 브런치 메뉴가 가득하다. 대표 메뉴는 신선한 모차렐라 치즈, 향긋한 바질, 새콤한 토마토소스가 어우러진 마르게리따다. 달콤한 꿀에 찍어서 먹으면 달면서 짠맛을 느낄 수 있는 고르곤졸라, 부챗살을 수비드 방식으로 조리해 부드럽고 육즙 가득한 부채살스테이크도 인기다. 이 밖에 부드럽고 매콤한 새우 로제 파스타와 고소하고 묵직한 새우크림 파스타 등도 맛볼 수 있다. 파군재 IC에서 가깝고, 인근에 팔공산도립공원, 신숭겸장군유적지, 대구섬유박물관이 있다.",053-986-9008,,,있음/주차요금 없음,0,,10:00~23:00,연중무휴,마르게리따,"고르곤졸라, 페퍼로니피자, 부채살스테이크, 새우 로제 파스타, 아메리카노 등",,,가능,가능,가능,"화장실:남녀 구분
",20180162237
원조아삼겹 본점,42043,,,대구광역시 수성구 만촌로 105,35.8679849568,128.6417253208,"원조아삼겹 본점은 대구광역시 수성구 만촌동에 있다. 깔끔한 외관과 인테리어가 눈에 띈다. 내부에는 단체석이 마련되어 있어 각종 모임을 하기 좋다. 대표 메뉴는 두툼한 삼겹살에 칼집을 낸 아삼겹이다. 상추 또는 깻잎 위에 쌈무를 올린 후 고기를 기름장과 콩가루에 찍은 다음 쌈장을 찍은 마늘을 올려 싸 먹으면 별미다. 이 밖에 돌판볶음밥, 원조라면, 된장찌개 등도 맛볼 수 있다. 동대구 IC에서 가깝고, 인근에 박물관 휴르, 국립대구기상과학관, 수성패밀리파크가 있다.",053-751-9692,,,있음 / 주차요금 무료,0,,16:00~24:00,월요일,아삼겹,"돌판볶음밥, 원조라면, 된장찌개 등",,,가능,가능,예약 가능,,20130174312
산중식당 파계사점,41001,,,대구광역시 동구 파계로 596,35.9832051406,128.6363697933,"산중식당 파계사점은 대구광역시 동구 중대동에 있다. 예전 상호는 산중에불쭈꾸미였다. 세련된 외관과 깔끔하고 차분한 분위기의 인테리어가 눈에 띈다. 내부에는 단체석이 있어 각종 모임을 하기 좋다. 대표 메뉴는 모듬보쌈, 곤드레밥, 된장찌개, 샐러드 등이 나오는 사람담다이다. 불주꾸미를 비롯해 샐러드, 냉묵사발 등이 상에 오르는 불쭈꾸미세트도 많은 사람이 선호한다. 이 밖에 갑오징어세트, 등심돈까스 등도 맛볼 수 있다. 파군재 IC에서 가깝고, 인근에 팔공산도립공원, 파계사, 팔공산케이블카가 있다.",053-982-0076,,,있음/주차요금 없음,0,,"11:30~21:00, 평일 브레이크 타임 15:30~17:00",연중무휴,사람담다,"아름담다, 불쭈꾸미세트, 갑오징어세트, 등심돈까스 등",,,가능,가능,,"화장실:남녀 구분
",20180161562
국일생갈비,41931,,,대구광역시 중구 국채보상로 492,35.8703975171,128.5845497342,"국일생갈비는 대구광역시 중구 동산동에 있다. 깔끔한 외관과 인테리어가 돋보이는 한우 전문점이다. 내부에는 단체석이 마련되어 있어 각종 모임을 하기 좋다. 대표 메뉴는 한우 특생갈비이며, 한우 생갈비, 한우 안창살, 한우 앙념갈비 등도 맛볼 수 있다. 점심 메뉴로는 한우 불고기, 한우 육개장, 한우 갈비뼈탕 등을 판다. 대구 지하철 3호선 서문시장역과 북대구IC에서 가깝다. 인근에는 청라언덕, 약전골목, 대구근대역사관 등이 있다.",053-254-5115,,,있음(무료),0,,매일 11:30~21:30,연중무휴,한우 특생갈비,"한우 생갈비, 한우 안창살, 한우 앙념갈비, 한우 불고기, 한우 육개장, 한우 갈비뼈탕 등",,,가능,가능,가능,"화장실:있음
",20060158138
칭밍,42217,,,"대구광역시 수성구 용학로 106-7수성관광호텔 2동 1, 2층",35.8244394704,128.6193062845,"칭밍은 대구광역시 수성구 두산동 소재 호텔 수성 별관에 있는 중화요릿집이다. 현대적인 감각이 돋보이는 외관과 고급스러운 분위기를 연출하는 인테리어가 눈에 띈다. 내부에는 단체석이 마련되어 있어 각종 모임을 하기 좋다. 이곳에서는 10여 명의 셰프가 수준 높은 요리를 선보인다. 대표 메뉴는 런치, 디너, 특선 등 코스 요리다. 디너 특선의 경우 프리미엄급 차, 죽생송이완자탕, 모둠전채, 칭밍특전가복, 자연송이해삼, 참마소고기안심, 왕새우, 식사류 등이 상에 오른다. 파동IC에서 가깝고 인근에 국립대구박물관, 수성유원지, 아르떼 수성랜드가 있다.",053-762-8900,,,있음(무료),0,,"11:30~21:30(브레이크 타임 14:30~17:00, 토~일요일 브레이크 타임 없음, 라스트 오더 20:30",연중무휴,"런치, 디너, 특선 등 코스 요리","샥스핀, 해삼류, 바닷가재 등 단품 요리, 짜장면, 짬뽕 등 식사류 등",,,가능,가능,가능,"화장실:있음
",20160174884
이향,42250,,,대구광역시 수성구 월드컵로5안길 17-3,35.8296483312,128.6798202577,"이향은 대구광역시 수성구 삼덕동에 있다. 오랜 세월의 흔적이 엿보이는 외관과 예스러운 분위기를 연출하는 인테리어가 눈에 띈다. 내부 벽면에는 이곳을 다녀간 유명인들의 사인이 채워져 있다. 대표 메뉴는 촌닭약초해물백숙이며, 해물옻닭, 해물통김치찌개, 닭도리탕, 간장찜닭, 해물탕 등도 많은 사람이 찾는다. 수성IC에서 가깝고, 주변에 대구어린이천문대와 히어로플레이파크 대구점이 있어 연계 여행에 나서기 수월하다.",053-793-7272,,,있음 / 주차요금 무료,0,,11:30~21:30,연중무휴,촌닭약초해물백숙,"해물옻닭, 해물통김치찌개, 닭도리탕, 간장찜닭, 해물탕 등",,,,,,,20110174173
조돌해녀 수성못점,42203,,,대구광역시 수성구 수성못2길 361층,35.8262615791,128.6243391238,"조돌해녀 수성못점은 대구광역시 수성구 두산동에 있다. KBS 2TV 시사 교양 프로그램 생생정보에 소개된 바 있다. 깔끔한 외관과 차분한 분위기를 연출하는 인테리어가 눈에 띈다. 내부에는 단체석이 마련되어 있어 각종 모임을 하기 좋다. 대표 메뉴는 맑은 육수에 살아 있는 조개, 돌문어, 전복이 들어가 시원하고 감칠맛이 일품인 조돌탕이다. 이 밖에 생새우구이, 해물모둠, 조개탕, 활문어, 국산대게 등도 준비되어 있다. 식사류는 칼국수, 전복야채죽, 게장밥 등이 있다. 파동IC와 대구 지하철 3호선 지산역에서 가깝다. 주변에는 아르떼 수성랜드와 수성유원지가 있다.",053-719-4010,,,있음 / 주차요금 무료,0,,"평일 16:00~01:00, 주말 12:00~02:00",연중무휴,조돌탕,"생새우구이, 해물모둠, 조개탕, 활문어, 국산대게, 칼국수, 전복야채죽, 게장밥 등",,,가능,가능,예약 가능,"화장실:남녀구분
",20180175528
하롱베이,42174,,,대구광역시 수성구 무학로 97,35.8302971384,128.6191922428,"하롱베이는 대구광역시 수성구 두산동에 있다. 현대적인 감각이 돋보이는 외관과 고급스러운 분위기를 연출하는 인테리어가 눈에 띈다. 내부에는 단체석이 마련되어 있어 각종 모임을 하기 좋다. 대표 메뉴는 싱싱한 채소와 볶음 소고기 등이 나오는 월남쌈이다. 이 밖에 사골과 양지를 넣고 12시간 동안 직접 끓인 육수로 만든 얼큰소고기쌀국수를 비롯해 매콤해산물 볶음밥, 팟타이, 분짜 등도 많은 사람이 찾는 메뉴다. 파동IC와 대구 지하철 3호선 수성못역에서 가깝다. 주변에는 아르떼 수성랜드와 수성유원지가 있어 연계 여행에 나서기 수월하다.",053-767-5454,,,있음 / 주차요금 무료,0,,11:00~22:00,연중무휴,월남쌈,"매콤해산물 볶음밥, 얼큰소고기쌀국수, 팟타이, 분짜 등",,,가능,,예약 가능,"화장실:남녀구분
",20010174940
걸리버막창,41589,,,대구광역시 북구 옥산로 53,35.8855735199,128.5814829152,"걸리버막창은 대구광역시 북구 노원동1가에 있다. KBS 2TV 예능 프로그램 배틀 트립에서 소개된 바 있다. 깔끔한 외관과 포장마차가 연상되는 인테리어가 눈에 띈다. 대표 메뉴는 노릇노릇하게 구워서 입 안에 넣으면 구수한 맛이 일품인 막창이다. 이 밖에 생삼겹, 생목살, 생가브리살, 버섯된장찌개 등도 준비되어 있다. 북대구IC와 대구 지하철 3호선 북구청역에서 가깝다. 주변에는 대구근대역사관과 달성공원 동물원이 있다.",053-356-6824,,,없음,0,,15:30~24:00,일요일,막창,"생삼겹, 생목살, 생가브리살, 버섯된장찌개 등",,,가능,,,,20010168086
홍구원수성점,42146,,,대구광역시 수성구 동대구로 167,35.8454038485,128.6238664115,"홍구원수성점은 대구광역시 수성구 황금동에 있다. 깔끔한 외관과 중국 감성이 느껴지는 인테리어가 눈에 띈다. 내부에는 단체석이 마련되어 있어 각종 모임을 하기 좋다. 대표 메뉴는 깔끔한 맛이 일품인 삼선짬뽕이며, 이 밖에 삼선짬뽕밥, 삼선하얀짬뽕 등도 인기가 많다. 요리 종류로는 깐풍육, 라조육, 동파육, 전가복 등이 준비되어 있다. 파동IC와 대구 지하철 3호선 어린이회관역에서 가깝다. 주변에는 아르떼 수성랜드와 고산골 공룡공원이 있다.",053-767-2888,,,있음 / 주차요금 무료,0,,11:00~21:00,연중무휴,삼선짬뽕,"삼선짬뽕밥, 삼선하얀짬뽕, 깐풍육, 라조육, 동파육, 전가복 등",,,가능,,,,20000175722
벽강물회식당,41589,,,대구광역시 북구 침산남로 62,35.8894064424,128.5827382534,"벽강물회식당은 대구광역시 북구 노원동1가에 있다. 깔끔함이 돋보이는 외관과 예스러운 분위기를 연출하는 인테리어가 눈에 띈다. 내부에는 단체석이 마련되어 있어 각종 모임을 하기 좋다. 대표 메뉴는 물회다. 매운탕으로는 생우럭탕, 생태구탕이 인기가 많다. 생선회는 모듬회, 광어회, 우럭회, 광도다리회, 참돔회 등을 판다. 북대구IC와 대구 지하철 3호선 북구청역에서 가깝다. 주변에는 대구근대역사관과 달성공원 동물원이 있다.",053-356-1900,,,있음/주차요금 없음,0,,11:00~22:00,연중무휴,물회,"생우럭탕, 생태구탕, 모듬회, 광어회, 우럭회, 광도다리회, 참돔회 등",,,가능,,,,20010169978
제1국수집,41545,,,대구광역시 북구 노원로 2421층,35.9009190952,128.5864098312,"제1국수집은 대구광역시 북구 침산동에 있다. SBS 시사 교양 프로그램 생방송 투데이에 소개된 바 있다. 세월의 흔적이 엿보이는 외관과 깔끔한 분위기를 연출하는 인테리어가 눈에 띈다. 내부에는 단체석이 마련되어 있어 각종 모임을 하기 좋다. 대표 메뉴는 잔치국수며, 일일 한정 판매하는 고기국수도 많은 사람이 찾는다. 면은 무료로 추가해 먹을 수 있다. 이 밖에 불고기한접시도 인기가 많다. 북대구IC에서 가깝고, 주변에는 대구근대역사관과 달성공원 동물원이 있다.",053-353-4380,,,있음/주차요금 없음,0,,11:00~15:00,일요일,잔치국수,"고기국수, 불고기한접시 등",,,,,,,20110168888
이모식당,41921,,,대구광역시 중구 서성로13길 9,35.8722779032,128.5869133625,"이모식당은 대구광역시 중구 서성로1가에 있다. 30년 넘게 영업했으며, SBS 시사 교양 프로그램 생활의 달인에 소개된 바 있다. 오랜 세월의 흔적이 엿보이는 외관과 예스러운 분위기를 연출하는 인테리어가 눈에 띈다. 대표 메뉴는 막창순대이며, 순대국밥, 돼지국밥, 섞어국밥, 수육,  모듬 등도 준비되어 있다. 서대구IC와 대구 지하철 3호선 서문시장역에서 가깝다. 주변에는 청라언덕, 대구근대역사관이 있다.",053-255-6971,,,없음(인근 경북주차장 이용),0,,10:00~22:00,연중무휴,막창순대,"순대국밥, 돼지국밥, 섞어국밥, 수육, 모듬 등",,,,,,,19800158035
팔공산맥,41457,,,대구광역시 북구 칠곡중앙대로 329,35.9253294932,128.5470348452,"팔공산맥은 대구광역시 북구 태전동에 있다. 현대적인 외관과 깔끔한 분위기를 연출하는 인테리어가 눈에 띈다. 내부에는 단체석이 마련되어 있어 각종 모임을 하기 좋다. 대표 메뉴는 매운맛과 순한 맛으로 구분되는 과실숙성돼지갈비다, 허브숙성생삼겹살, 항정살 생고기도 인기가 많다. 한우 메뉴로는 육회물회, 육회비빔밥 등이 있다. 점심특선으로는 돼지갈비정식, LA갈비찜, 한우불고기정식이 있으며, 주메뉴와 함께 돌솥 밥, 냉면, 알밥 중 한 가지를 함께 맛볼 수 있다. 칠곡IC와 대구 지하철 3호선 구암역에서 가깝다. 주변에는 운암지 수변공원과 신전뮤지엄이 있다.",053-311-8445,,,있음/주차요금 없음,0,,10:00~01:00,연중무휴,과실숙성돼지갈비,"허브숙성생삼겹살, 항정살 생고기, 육회물회, 육회비빔밥 등",,,,,,,20060169020
고모역쭈꾸미,42260,,,대구광역시 수성구 고모로 188,35.8565425061,128.6795556428,"고모역쭈꾸미는 대구광역시 수성구 고모동에 있다. 깔끔한 외관과 예스러운 분위기를 연출하는 인테리어가 눈에 띈다. 내부에는 단체석이 마련되어 있어 각종 모임을 하기 좋다. 대표 메뉴는 매콤한 맛이 일품인 쭈꾸미다. 차돌박이나 버섯을 추가해 넣어 먹으면 별미다. 평일 오전 11시 30분부터 오후 2시까지 주문할 수 있는 돌솥 쭈꾸미 정식도 많은 사람이 찾는다. 이 밖에 차돌버섯된장찌개, 계란찜 등도 준비되어 있다. 동대구IC에서 가깝고, 주변에 수성패밀리파크와 국립대구기상과학관이 있다.",053-793-0204,,,있음/주차요금 없음,0,,"11:30~22:00, 브레이크 타임 15:00~17:00",월요일,쭈꾸미,"돌솥 쭈꾸미 정식, 차돌버섯된장찌개, 계란찜 등",,,가능,가능,,"화장실:남녀 구분
",20150174887
루미너스,42146,,,대구광역시 수성구 희망로 2042층,35.8461203838,128.6211138557,"루미너스는 대구광역시 수성구 황금동에 있다. 현대적인 감각이 돋보이는 외관과 고급스러운 분위기를 연출하는 인테리어가 눈에 띈다. 내부에는 단체석이 마련되어 있어 각종 모임을 하기 좋다. 대표 메뉴는 한우 안심 스테이크를 비롯해 샐러드, 스파게티 등이 나오는 스테이크 코스다. 스파게티 종류로는 까르보나라, 크림 페스토, 베이컨 로제가 있다. 피자는 고르곤졸라 피자. 풍기버섯 피자, 가지 토마토 피자 등을 맛볼 수 있다. 파동IC와 대구 지하철 3호선 어린이회관역에서 가깝다. 주변에는 아르떼 수성랜드와 고산골 공룡공원이 있다.",053-795-4946,,,있음/주차요금 없음,0,,11:30~21:30,연중무휴,스테이크 코스,"까르보나라, 크림 페스토, 베이컨 로제, 고르곤졸라 피자, 풍기버섯 피자, 가지 토마토 피자 등",,,가능,,가능,"화장실:남녀 구분
",20190175079
동봉,41009,,,대구광역시 동구 팔공로 995,35.9551037153,128.6874355240,"동봉은 대구광역시 동구 백안동에 있는 육류 전문 음식점이다. 현대적인 감각이 돋보이는 외관과 깔끔한 분위기를 연출하는 인테리어가 눈에 띈다. 내부에는 단체석이 마련되어 있어 각종 모임을 하기 좋다. 2대째 운영 중인 이곳의 대표 메뉴는 신선한 국내산 돼지갈비와 목살을 비법 소스로 양념한 한돈양념돼지갈비다. 이 밖에 부드럽고 구수한 맛이 일품인 동봉양념소갈비를 비롯해 한우막구이, 한돈삼겹살, 한돈목살 등도 판다. 평일 오전 11시 30분부터 오후 2시까지는 점심 특선 메뉴인 돼지갈비한상과 소갈비한상을 맛볼 수 있다. 파군재IC에서 가깝고, 주변에 팔공산 도립공원과 팔공산케이블카가 있다.",053-554-8080,,,있음(무료),0,,매일 11:30~22:00 (브레이크 타임 15:00~17:00),연중무휴,한돈양념돼지갈비,"동봉양념소갈비, 한우막구이, 한돈삼겹살, 한돈목살 등",,,가능,,,"화장실:있음
",20190161018
안심농장직영식육식당,41060,,,대구광역시 동구 대경로 1,35.8757250806,128.7557345127,"안심농장직영식육식당은 대구광역시 동구 숙천동에 있다. 깔끔함이 돋보이는 외관과 예스러운 분위기를 연출하는 인테리어가 눈에 띈다. 내부에는 단체석이 마련되어 있어 각종 모임을 하기 좋다. 대표 메뉴는 당일 도축한 신선한 한우를 손질한 생고기다. 이 밖에 로스구이, 뭉티기, 육회, 장국시 등도 준비되어 있다. 무엇보다 합리적인 가격에 품질 좋고 맛도 좋은 한우를 먹을 수 있다는 게 매력적이다. 경산IC에서 가깝고, 주변에 팔공산 도립공원과 팔공산케이블카가 있다.",053-964-0022,,,있음(무료),0,,매일 11:00~21:00,연중무휴,생고기,"로스구이, 뭉티기, 육회, 장국시 등",,,가능,가능,,,19980160034
명동돼지한마리,42140,,,대구광역시 수성구 범어천로 48 명국빌딩,35.8511781958,128.6238940257,"명동돼지한마리는 대구광역시 수성구 범어동에 있다. 깔끔한 외관과 예스러운 분위기를 연출하는 인테리어가 눈에 띈다. 내부에는 단체석이 마련되어 있어 각종 모임을 하기 좋다. 대표 메뉴는 국내산 돼지를 손질해 나오는 돼지갈비이며, 갈비찜, 김치찌개, 된장밥, 통갈비수육 등도 판다. 면 요리로는 물냉면, 비빔냉면, 잔치국수, 비빔 소면이 준비되어 있다. 파동IC와 대구 지하철 3호선 수성구민운동장역에서 가깝다. 주변에는 아르떼 수성랜드와 고산골 공룡공원이 있다.",053-761-6336,,,있음/주차요금 없음,0,,12:00~22:30,연중무휴,돼지갈비,"갈비찜, 물냉면, 비빔냉면, 잔치국수, 김치찌개, 된장밥, 통갈비수육 등",,,가능,,,,20040174321
팔공산 닭갈비,41002,,,대구광역시 동구 파계로 154-8,35.9477452707,128.6364291145,"팔공산 닭갈비는 대구광역시 동구 지묘동에 있다. 현대적인 감각이 돋보이는 외관과 깔끔한 분위기를 연출하는 인테리어가 눈에 띈다. 대표 메뉴는 국내산 냉장 닭을 사용해 요리한 2인분같은 1인분닭갈비다. 3명이 2인분만 주문해도 모자람 없이 맛볼 수 있다. 치즈, 우동 등을 추가할 수 있으며, 모두 맛본 후에는 날치알이 듬뿍 들어간 볶음밥을 먹을 수 있다. 셀프바에서는 라면과 부침개를 저렴한 가격에 맛볼 수 있다. 파군재IC에서 가깝고, 주변에 팔공산 도립공원과 팔공산케이블카가 있다.",053-255-2288,,,있음(무료),0,,"11:30~19:30, 브레이크 타임 14:00~16:30","월, 화요일",2인분같은 닭갈비1인분,치즈듬뿍 고르곤졸라 피자 등,,,가능,가능,,"화장실:있음
",20170160499
슬로우라이프,42013,,,대구광역시 수성구 동대구로77길 33-4,35.8644683724,128.6246241472,"슬로우라이프는 대구광역시 수성구 범어동에 있다. 빈티지한 멋을 풍기는 외관과 감성적인 분위기를 연출하는 인테리어가 눈에 띈다. 내부에는 단체석이 마련되어 있어 각종 모임을 하기 좋다. 대표 메뉴는 소금빵이며, 크로아상 샌드위치, 에그타르트, 골드망고빙수, 소시지 페스츄리 등도 준비되어 있다. 수성IC와 대구 지하철 2호선 범어역에서 가깝다. 주변에는 대구어린이교통랜드와 국립대구박물관이 있다.",053-643-2014,,,있음/주차요금 없음,0,,11:00~22:00,월요일,소금빵,"크로아상 샌드위치, 에그타르트, 골드망고빙수, 소시지 페스츄리 등",,,가능,가능,,,20140174437
싱싱뽈락회,42203,,,대구광역시 수성구 수성못2길 17,35.8254810921,128.6232586852,"싱싱뽈락회는 대구광역시 수성구 두산동에 있다. 깔끔한 외관과 차분한 분위기를 연출하는 인테리어가 눈에 띈다. 내부에는 단체석이 마련되어 있어 각종 모임을 하기 좋다. 대표 메뉴는 뽈락세꼬시이며, 이 밖에 잡어회, 돌문어, 해산물모듬, 산곰장어 등이 준비되어 있다. 파동IC와 대구 지하철 3호선 수성못역에서 가깝다. 주변에는 아르떼 수성랜드와 수성유원지가 있어 연계 여행에 나서기 수월하다.",053-762-0010,,,있음/주차요금 없음,0,,15:00~01:00,일요일,뽈락세꼬시,"잡어회, 돌문어, 해산물 모듬, 산곰장어 등",,,가능,,,,20090174844
우니카트,42017,,,대구광역시 수성구 범어천로 151-4,35.8605159932,128.6220022658,"우니카트는 대구광역시 수성구 수성동4가에 있다. 이국적인 느낌의 외관과 고급스러운 분위기를 연출하는 인테리어가 눈에 띈다. 대표 메뉴는 느타리버섯, 햄, 양파 등을 넣어 만든 버섯 샌드위치다. 이 밖에 연어 샌드위치, 아보카도 샌드위치, 통밀 샌드위치, 리코다 치즈 샐러드, 버섯 스프 등도 많은 사람이 찾는다. 아메리카노 등 각종 음료도 판다. 수성IC와 대구 지하철 2호선 범어역에서 가깝다. 주변에는 대구어린이교통랜드와 국립대구박물관이 있다.",053-267-0522,,,없음(가게 앞에 자리 있을 시 주차가능),0,,08:30~20:30,일요일,버섯 샌드위치,"연어 샌드위치, 아보카도 샌드위치, 통밀 샌드위치, 리코다 치즈 샐러드, 버섯 스프, 아메리카노 등 각종 음료",,,가능,가능,,"화장실:남녀 구분
",20140174633
울진왕돌참가자미회,42154,,,대구광역시 수성구 청수로3길 5,35.8414234891,128.6100538487,"울진왕돌참가자미회는 대구광역시 수성구 중동에 있다. 깔끔한 외관과 차분한 분위기를 연출하는 인테리어가 눈에 띈다. 내부에는 단체석이 마련되어 있어 각종 모임을 하기 좋다. 대표 메뉴는 참가자미 세꼬시이며, 참도다리 세꼬시, 자연산 모듬회, 참치회, 해산물 모듬, 고추장물회 등도 인기가 많다. 매운탕으로는 생우럭탕, 생아구탕, 생대구탕이 준비되어 있다. 파동IC에서 가깝고, 주변에는 아르떼 수성랜드와 고산골 공룡공원이 있다.",053-768-8896,,,있음/주차요금 없음,0,,12:00~23:00,연중무휴,참가자미 세꼬시,"참도다리 세꼬시, 자연산 모듬회, 참치회, 해산물 모듬. 고추장물회, 생우럭탕, 생아구탕, 생대구탕 등",,,가능,가능,가능,,20160174099
군위민속한우,39016,,,대구광역시 군위군 도군로 2656,36.2448157394,128.5629466878,"군위민속한우는 경상북도 군위군 군위읍 정리에 있는 불고기 무한리필 맛집이다. 국내산 한우 불고기를 마음껏 먹을 수 있다는 장점이 있어 인기가 많다. 단 채소는 일정 요금을 지불해야 추가할 수 있다. 불고기 외에 생고기, 육회, 육회비빔밥, 한우국밥 등이 있고 정육점에서 맘에 드는 고기를 고른 후 식당에 상차림 비용을 지불하면 맛볼 수 있는 구이용 한우도 인기가 많다. 군위 IC에서 가깝고, 주변에 군위힐링도시숲, 구니CC가 있다.",054-383-1199,,,있음,0,,10:30~20:30,연중무휴,한우불고기,"생고기, 육회, 육회비빔밥, 한우국밥, 구이용 한우 등",,,,,,,20100562022
청학식당,42425,,,대구광역시 남구 봉덕로1길 52-1,35.8478501966,128.5914580862,"청학식당은 대구광역시 남구 봉덕동에 있다. SBS 예능 프로그램 백종원의 3대 천왕, KBS 2TV 시사 교양 프로그램 생생정보에 소개된 바 있다. 세월의 흔적이 보이는 외관과 예스러운 분위기를 연출하는 인테리어가 눈에 띈다. 내부에는 단체석이 마련되어 있어 각종 모임하기 좋다. 대표 메뉴는 알, 곤이, 대구가 어우러진 섞어탕 1이다. 이 밖에 알과 대구를 넣은 섞어탕 2, 곤이와 대구로 요리한 섞어탕 3도 인기가 많다. 대구탕, 알곤탕, 대구찜 등도 판다. 파동IC와 대구 지하철 1호선 교대역에서 가깝다. 주변에는 83타워, 이월드 등 대구의 유명 관광지가 많다.",053-474-2807,,,없음,0,,09:00~15:00,일요일,섞어탕 1,"섞어탕 2, 섞어탕 3, 대구탕, 알곤탕, 대구찜 등",,,,가능,,,19910166083
푸주옥설렁탕,42661,,,대구광역시 달서구 달구벌대로 1860,35.8605899946,128.5682847731,"푸주옥설렁탕은 대구광역시 달서구 두류동에 있다. 깔끔한 외관과 예스러운 분위기를 연출하는 인테리어가 눈에 띈다. 내부에는 단체석이 있어 각종 모임에 적당하다. 대표 메뉴는 설렁탕이며, 특설렁탕, 도가니탕, 양곰탕, 꼬리곰탕 등도 판매하고 있다. 수육 종류로는 모듬수육, 도가니수육, 꼬리수육이 있다. 매년 3~9월에는 계절 메뉴인 물냉면, 비빔냉면도 맛볼 수 있다. 성서IC와 대구 지하철 2호선 내당역에서 가깝다. 주변에는 이월드와 두류워터파크가 있어서 관광 후에 식사하기 좋다.",053-628-8788,,,있음 / 주차요금 무료,0,,10:00~21:30 (21:00 라스트 오더),월요일,설렁탕,"특설렁탕, 도가니탕, 양곰탕, 꼬리곰탕, 모듬수육, 도가니수육, 꼬리수육 등",,,가능,가능,예약 가능,"화장실:남녀구분
",20080181024
진해숯불막창,42400,,,대구광역시 남구 성당로 272,35.8570905037,128.5744259964,"진해숯불막창은 대구광역시 남구 대명동에 있다. 세월의 흔적이 엿보이는 외관과 깔끔한 분위기를 연출하는 인테리어가 눈에 띈다. 대표 메뉴는 숯불에 구워서 먹는 돼지 막창이다. 음식을 주문하면 물김치, 마늘, 막장, 고추, 파, 쌈, 부추 등이 함께 상에 오른다. 이 밖에 소 막창, 생삼겹, 목살 등도 판매한다. 특이하게 대창과 막창 사이 부분인 절창을 판매한다. 성서IC와 대구 지하철 2호선 반고개역에서 가깝다. 주변에는 83타워, 이월드 등 대구의 유명 관광지가 많이 있어서 관광 후에 식사하기 좋다.",053-253-3795,,,있음/주차요금 없음,0,,17:00~01:00,일요일,돼지막창,"소막창, 생삼겹, 목살, 절창 등",,,가능,,,,20180167249
신송자 신마산식당,42413,,,대구광역시 남구 현충로 214,35.8515551649,128.5823393416,"신송자 신마산식당은 대구광역시 남구 대명동에 있다. 깔끔한 외관과 예스러운 분위기를 연출하는 인테리어가 눈에 띈다. 내부에는 단체석이 마련되어 있어 각종 모임을 하기 좋다. 대표 메뉴는 돼지국밥이다. 따로국밥, 순대국밥, 인삼국밥, 살코기국밥, 암뽕국밥 등 여러 가지 국밥도 맛볼 수 있다. 이 밖에 모듬수육, 찐순대 등도 판매하고 있다. 성서IC와 대구 지하철 3호선 남산역에서 가깝다. 주변에는 83타워, 이월드 등 대구의 유명 관광지가 많아 함께 둘러보기 좋다.",053-657-7733,,,있음/주차요금 없음,0,,09:30~21:00 (20:30 라스트 오더),월요일,돼지국밥,"고기밥, 따로국밥, 순대국밥, 인삼국밥, 살코기국밥, 암뽕국밥, 모듬수육, 찐순대 등",,,가능,,,,19960166130
금산곰탕,42992,,,대구광역시 달성군 구례길 1,35.6451514211,128.4688189162,"금산곰탕은 대구광역시 달성군 유가읍 가태리에 있다. 세월의 흔적이 엿보이는 외관과 예스러운 분위기를 연출하는 인테리어가 눈에 띈다. 내부에는 단체석이 있어 각종 모임을 가지기 좋다. 대표 메뉴는 곰탕이며, 특곰탕, 살코기곰탕, 양곰탕, 꼬리곰탕 등 다양한 곰탕이 준비되어 있다. 곰탕에 곁들여 먹기 좋은 수육으로는 모듬수육, 양수육, 꼬리수육 등이 있다. 오후 7시까지 영업하지만, 재료가 모두 소진되면 조기에 영업을 마감하기 때문에 5시 이후에는 방문 전 문의를 하는 편이 좋다. 가까이에 북현풍(하이패스)IC에서 가깝고, 인근에 국립대구과학관과 비슬산자연휴양림이 있다.",053-611-4477,,,있음 / 주차요금 무료,0,,11:00~19:00 (재료소진 시 마감),연중무휴,곰탕,"특곰탕, 살코기곰탕, 양곰탕, 꼬리곰탕, 모듬수육, 양수육, 꼬리수육",,,가능,가능,예약 가능,"화장실:남녀구분
",19900188015
한스시,42471,,,대구광역시 남구 두류공원로19길 8-41층,35.8447584577,128.5685268582,"한스시는 대구광역시 남구 대명4동에 있다. 깔끔한 외관과 인테리어로 꾸며졌다. 대표 메뉴는 1인분을 주문하면 초밥과 우동, 2인분을 주문하면 초밥과 우동에 가자미구이가 추가돼 나오는 한스시 정식이다. 이 밖에 유부초밥, 활어광어초밥, 모둠회, 등심가스, 생선가스, 회덮밥 등 다양한 음식을 맛볼 수 있다. 4인에게 어울리는 한스시 스페셜은 초밥, 새우튀김롤, 우동, 홍게 그라탕 등이 함께 나온다. 성서IC와 대구 지하철 1호선 안지랑역에서 가깝다. 주변에는 83타워, 이월드가 있어 연계 여행에 나서기 수월하다.",053-292-1189,,,없음,0,,24시간,연중무휴,한스시 정식,"유부초밥, 활어광어초밥, 모둠회, 등심가스, 생선가스, 회덮밥 등",,,가능,가능,,,20070166266
두류해물탕본점,42633,,,대구광역시 달서구 달구벌대로 1511,35.8501571809,128.5323326750,"두류해물탕본점은 대구광역시 달서구 용산동에 있다. 세월의 흔적이 엿보이는 외관과 예스러운 분위기를 연출하는 인테리어가 눈에 띈다. 내부에는 단체석이 마련되어 있어 각종 모임에 적당하다. 대표 메뉴는 각종 해물을 넣고 얼큰하게 끓인 해물탕이다. 이 밖에 해물찜, 아구찜, 왕새우찜, 가오리찜, 꽃게찜 등을 판다. 성서IC와 대구 지하철 2호선 용산역에서 가깝다. 주변에는 83타워, 이월드 등이 있어 연계 관광하기 좋다.",053-562-6006,,,있음 / 주차요금 무료,0,,10:00~22:00 (라스트 오더 21:45),연중무휴,해물탕,"해물찜, 아구찜, 왕새우찜, 가오리찜, 꽃게찜 등",,,가능,가능,,,20020182300
천연애,42819,,,대구광역시 달서구 앞산순환로 289,35.8277379879,128.5590864950,"천연애는 대구광역시 달서구 송현1동에 있다. 세월이 흔적이 느껴지는 외관과 깔끔한 분위기를 연출하는 인테리어가 눈에 띈다. 내부에는 단체석이 마련되어 있어 각종 모임을 가지기 좋다. 대표 메뉴는 오리고기와 부추가 어우러진 힐링불고기다. 이 밖에 예약해야만 맛볼 수 있는 능이백숙을 비롯해 들깨수제비. 메밀막국수, 볶음밥 등도 판다. 남대구IC와 대구 지하철 1호선 송현역에서 가깝다. 주변에는 앞산해넘이전망대, 비슬산둘레길10구간이 있어 연계 여행에 나서기 수월하다.",053-638-9908,,,있음 / 주차요금 무료,0,,11:30 ~ 21:30,연중무휴,힐링불고기,"능이백숙, 들깨수제비. 메밀막국수, 볶음밥 등",,,가능,가능,,"화장실:남녀구분
",19990181773
코시스,42687,,,대구광역시 달서구 용산로 82,35.8446133421,128.5311579322,"코시스는 대구광역시 달서구 장기동에 있는 초밥 뷔페다. 현대적인 감각이 돋보이는 외관과 고급스러운 분위기를 연출하는 인테리어가 눈에 띈다. 내부에는 단체석이 마련되어 있어 각종 모임을 가지기 좋다. 각종 초밥을 비롯해 롤, 파스타, 리소토, 디저트 등 90여 종의 신선한 음식을 맛볼 수 있다. 남대구IC와 대구지하철 2호선 용산역에서 가깝다. 주변에는 83타워, 이월드 등이 있어 연계 관광이 순조롭다.",053-558-1127,,,있음 / 주차요금 무료,0,,"11:30~21:30, 평일 브레이크 타임 15:00~17:30",연중무휴,평일 런치,"평일 디너, 주말/공휴일 등",,,가능,,예약 가능,"화장실:남녀구분
",20070181469
프라그란자,42938,,,대구광역시 달성군 가창로176길 29,35.7897770054,128.6345753483,"프라그란자는 대구시 달성군 가창면에 있는 디저트 카페이다. 현대적인 건물 외관과 고급스러운 실내 인테리어가 눈에 띄는 곳으로 대표 메뉴는 풍기크림소스와 소갈비가 어우러진 오리엔탈 풍기만조 페투치니다. 이 밖에 쉬림프 토마토 파스타, 필리 치즈 스테이크 치킨, 오리엔탈 우삼겹 필라프 등이 있다. 아메리카노 등 다양한 커피와 음료도 맛볼 수 있다. 파동 IC에서 가깝고, 주변에 워터파크 스파밸리와 수성유원지가 있다.",053-763-4600,,,있음 / 주차요금 무료,0,,10:00~23:00,연중무휴,오리엔탈 풍기만조 페투치니,"쉬림프 토마토 파스타, 필리 치즈 스테이크 치킨, 오리엔탈 우삼겹 필라프, 아메리카노 등 각종 음료",,,가능,,,"화장실:남녀구분
",20130188146
홍구원가창점,42938,,,대구광역시 달성군 가창로176길 9,35.7895242941,128.6366279526,"홍구원가창점은 대구광역시 달성군 가창면 냉천리에 있다. 이국적인 외관과 깔끔한 분위기를 연출하는 인테리어가 눈에 띈다. 내부에는 단체석이 마련되어 있어 각종 모임을 가지기 좋다. 대표 메뉴는 매콤한 맛이 일품인 홍구짬뽕이다. 이 밖에 전가복, 찹쌀탕수육 등도 많이 찾는다. 세트 메뉴인 홍구원 스페셜 코스도 인기다. 3인부터 주문할 수 있는 3만상은 삼품냉채, 게살스프, 팔진샥스핀, 깐쇼중새우, 유린기, 고추잡채, 식사, 디저트 등이 나온다. 파동IC에서 가깝고, 주변에 워터파크 스파밸리와 수성유원지가 있어 관광 후에 식사하기 좋다.",053-763-8868,,,있음 / 주차요금 무료,0,,"11:30~21:00(주말 브레이크 타임 15:30~17:00, 라스트 오더 20:30)",연중무휴,홍구짬뽕,"전가복, 찹쌀탕수육, 각종 세트 메뉴 등",,,가능,가능,예약 가능,"화장실:남녀구분
",20070188144
꼬밥,41001,,,대구광역시 동구 파계로 620,35.9854132203,128.6362391871,"꼬밥은 대구광역시 동구 중대동에 있다. 깔끔함 돋보이는 외관과 차분한 분위기를 연출하는 인테리어가 눈에 띈다. 내부에는 단체석이 마련되어 있어 각종 모임을 할 수 있다. 대표 메뉴는 양념 꼬막이며, 통꼬막, 꼬막무침회, 꼬막부추전 등도 판다. 꼬밥정식, 간장꼬밥정식은 매년 7~8월에만 판매하지 않는다. 업주의 가족이 벌교에서 채취한 꼬막을 주재료로 이용하기 때문에 신선함을 믿을 수 있다. 파군제IC에서 가깝고, 주변에 팔공산도립공원과 팔공산케이블카가 있어 관광 후 식사하기 적당하다.",053-981-9869,,,있음,0,,11:30~20:30,연중무휴,양념꼬막,"꼬밥정식, 간장꼬밥정식, 꼬막부추전 등",,,,,,,20110160876
편대장영화식당 범어점,42118,,,대구광역시 수성구 동대구로 291,35.8565664998,128.6252354247,"편대장영화식당 범어점은 대구광역시 수성구 범어동에 있다. 현대적인 외관과 깔끔한 분위기를 연출하는 인테리어가 눈에 띈다. 내부에는 단체석이 마련되어 있어 각종 모임을 하기 좋다. 대표 메뉴는 육회이며, 한우소금구이, 소고기찌개, 육회비빔밥, 한우소고기국밥, 육회냉면 등도 판다. 대구 지하철 2호선 범어역과 북대구IC에서 가깝다. 인근에는 김광석다시그리기길, 관덕정 순교기념관이 있다.",053-744-2655,,,있음/주차요금 무료,0,,11:00~22:00,연중무휴,육회,"한우소금구이, 소고기찌개, 육회비빔밥, 한우소고기국밥, 육회냉면 등",,,가능,가능,가능,"화장실:남녀 구분
",20060174476
붐비네,41002,,,대구광역시 동구 지묘동 522-3,35.9419459731,128.6388707285,"샤이니 팬들의 성지
눈에 띄는 간판도 없는 초등학교 앞 작은 떡볶이집이지만, 샤이니의 팬이라면 꼭 방문하는 곳이다. 키가 초등학생 시절 매일 들르다시피 했기 때문이다. 샤이니의 앨범, 사진으로 가게 안이 빼곡해 보는 재미가 있다. 양배추가 많이 들어간 달달한 떡볶이는 자극적이지 않아 부담 없이 먹을 수 있다. 여기에 대구 명물 납작만두를 섞어 먹으면 최고의 궁합이다. 유쾌한 사장님의 이야기를 듣다 보면 새로운 추억도 새록새록 쌓인다.",0507-1417-9591,,,,0,,11:00~19:00,일요일,,,,,,,,,
삼송빵집 본점,41935,,,대구광역시 중구 동성로3가 1-3,35.8686534349,128.5934712192,"f(x) 크리스탈이 찾은 대구 대표 빵집
1957년 문을 열었으며, f(x) 크리스탈이 이곳의 빵을 맛있게 먹는 모습으로 더욱 유명세를 타 대구 대표 빵집으로 불린다. 통옥수수빵, 먹물 통옥수수빵, 야채 고로케, 소보로 팥빵, 크림치즈 찰떡 빵이 베스트 메뉴. 높은 층고와 샹들리에가 인상적인데, 2층으로 올라가면 넓은 공간에 심플하게 테이블이 놓여져 있는 미니멀한 카페 같은 분위기가 펼쳐진다.",053-254-4064,,,,0,,08:00~22:00,,,,,,,,,,
팔공참한우암소마실,41005,팔공참한우암소마실,053-982-3384,대구광역시 동구 팔공로 481,35.9442069112,128.6433702688,"팔공산 관문에 위치한 순 한우 전문점으로 업소 외관을 전통 한옥 문양 형태로 단장하여 한옥의 운치를 살렸다. 콩, 밀 등 양질의 사료를 공급하며 직접 사육한 한우만을 고집한다.",053-982-3384,,,주차 가능,0,,10:00 ~ 22:00,명절당일,갈빗살,갈빗살 / 꽃등심 / 안창살 / 차돌박이 / 육회 외,,모두 금연석,가능,가능,전화 예약 문의 (053-982-3382),"화장실:남녀개별 / 업소 내부 위치
",20180162082
아트리움,42025,아트리움,053-754-3111,대구광역시 수성구 국채보상로186길 151(범어동),35.8615688724,128.6339650718,"아트리움은 약혼식, 피로연, 생일파티, 각종 모임 등의 성격에 맞는 격조 높은 분위기와 정성 어린 서비스를 제공한다. 여유 있는 모임을 위해 사전예약을 해두면 더욱 좋을 듯하다.",053-754-3111,,,주차 가능,0,,12:00 ~ 22:00 (브레이크타임 14:30 ~ 17:00),연중무휴,스테이크 / 랍스터,스테이크 / 랍스터 / 새우크림스파게티 / 연어샐러드 / 코스요리 외,,모두 금연석,가능,,전화 예약 문의 (053-754-3111),"화장실:남녀개별, 식당 내부
",20000175695
중화반점,41937,중화반점,053-425-6839,대구광역시 중구 중앙대로 406-12(남일동),35.8693172661,128.5944266717,"1954년에 개업한 중화반점은 야끼우동이 태어난 집으로, 전통의 맛을 느끼기엔 좋은 곳이다. 야끼우동은 매운 고운 고춧가루와 마늘로 만든 매운 양념에 양파, 배추, 호박, 숙주나물, 목이버섯, 새우, 오징어, 돼지고기 등을 넣어 센 불에 즉석에서 볶아낸다. 대구의 야끼우동은 ‘대구 10미’에 선정되어 있을 만큼 대구를 대표하는 음식 중 하나이다.<br>",053-425-6839,,,주차 가능,0,,11:30 ~ 21:00,연중무휴,탕수육,탕수육 / 야끼우동 / 새우볶음밥 / 자장면 / 군만두 외,,모두 금연석,가능,가능(일부 메뉴),전화 예약 가능 (053-425-6839),"화장실:남녀개별 / 업소 내부 위치
",2003018056
미성당납작만두,41977,미성당납작만두,053-255-0742,대구광역시 중구 명덕로 93,35.8575100191,128.5808504180,"오랜 전통으로 운영되고 있는 음식점으로, 대구에서만 맛볼 수 있는 납작만두 전문점이다. 납작만두는 얇은 만두피 안에 당면과 부추를 넣고, 다른 만두처럼 물에 한 번 삶은 뒤 구워 먹는다. 납작만두는 고춧가루와 식초, 설탕을 섞은 간장을 위에 뿌려 먹으면 조금 더 맛이 좋다고 한다.",053-255-0742,,,주차 가능,0,,10:30 ~ 21:00 (주말 10:30 ~ 20:00),명절연휴,납작만두,납작만두 / 쫄면 / 우동 / 라면 외,,모두 금연석,가능,가능,전화 예약 문의 (053-255-0742),,20170158549
용지봉,42168,용지봉,053-783-8558,대구광역시 수성구 들안로 9,35.8306137137,128.6161897207,"경상북도가 인증하고 영남대학교와 경북지역축협이 공동 개발한 참품 한우를 제공하고 있으며, 특히 토속 한정식과 참품 한우를 코스요리로 선택할 경우 더욱 뛰어난 맛을 느낄 수 있다.",0507-1322-8558,,,주차 가능,0,,10:00 ~ 22:00 (브레이크타임 15:30 ~ 17:00 / 라스트오더 20:30),명절연휴,코스요리,코스요리 / 한우육회 / 갈비찜구이 / 문어무침 / 홍어 / 연잎밥 외,,모두 금연석,가능,가능(일부 메뉴),전화 예약 가능 (053-783-8558),"화장실:업소내 위치
",20000176765
내안에,42174,내안에,053-766-0760,대구광역시 수성구 무학로 85,35.8301665753,128.6179395792,"회전식 초밥과 롤 전문점으로 자신이 좋아하는 음식을 선택하여 맛볼 수 있는 곳이다. 우동, 알밥, 회덮밥 등의 식사 메뉴를 별도로 주문하여 맛볼 수 있다.",053-766-0760,,,주차 가능,0,2006년 03월 30일,11:30 ~ 22:00,,초밥,초밥 / 롤스시 / 초밥정식 / 장어덮밥 / 회덮밥 / 일식돈까스 / 알밥 / 모밀국수/ 우동 외,,모두 금연석,가능,,전화 예약 가능 (053-766-0760),,20010174063
련,41423,련,053-313-8889,대구광역시 북구 동천로 128-15,35.9428500147,128.5624746617,"련은 대구광역시 동천동에 위치한 일식 요리 전문점이다. 연꽃의 연의 연자를 따서 지은 이름으로 연꽃처럼 우아하고 아름답고 단아한 이미지를 표현하며 고급스러우면서 세련된 일본 본토의 분위기를 느낄 수 있는 곳이다. 스시와 생선회 외에도 돈가스, 우동, 알밥 등 다양한 정식 메뉴가 제공되어 취향대로 골라 먹을 수 있다.",053-313-8889,,,가능,0,2006년 12월 04일,일요일~목요일 11:30~23:00<br>금요일~토요일 11:30~23:30<br>[브레이크타임]<br>주중 15:00~17:00<br>주말 16:00~17:00,"매주 월요일, 명절 연휴",모둠회 / 초밥정식,모둠회 / 초밥정식 / 돈까스정식 / 연어회 / 해물볶음면 / 해물야끼우동 / 나가사끼짬뽕나베 / 해물짬뽕나베 외,,모두 금연석,가능,가능(일부 메뉴),전화 예약 가능 (053-313-8889),,20060168955
더덕고을,41002,더덕고을,053-985-5700,대구광역시 동구 파계로 152-5,35.9471036869,128.6370013046,"대구 팔공산 더덕고을은 팔공산 인근에 위치한 더덕요리 전문점이다. 일반 정식은 더덕구이 위주로, 미진 정식은 여러종류의 더덕 요리가 제공된다.",053-985-5700,,,주차 가능,0,2006년 04월 20일,11:20 ~ 21:30,명절연휴,고을정식,고을정식 / 더덕떡갈비 / 더덕육회 / 오리훈제 외,,모두 금연석,가능,가능(일부 메뉴),전화 예약 가능 (053-985-5700),,20020160540
대륙회초밥,42162,대륙회초밥,053-766-8958,대구광역시 수성구 들안로 99,35.8387544598,128.6161950494,"묵은지와 싱싱한 회, 고소한 된장양념의 3색 맛이 일미인 정통 일식 전문점이다.",053-766-8958,,,주차 가능,0,1994년 12월 01일,11:30 ~ 22:00,명절 (전화문의),생선회 / 생선초밥,생선회 / 생선초밥 / 모듬회 / 코스요리,,모두 금연석,가능,가능(일부 메뉴),전화 예약 가능 (053-766-8958),,20000176177
예원,41589,예원,053-354-9300,대구광역시 북구 원대로 119,35.8882093493,128.5823855401,"정통 중국요리 전문점이다. 정통 중국요리부터 시원한 국물이 일품인 삼선짬뽕, 자장면까지 다양한 맛을 즐길 수 있다. 각종 모임과 비즈니스 접대에도 좋은 품격 있는 레스토랑이다.",053-354-9300,,,주차 가능,0,2004년 11월,11:30~21:00<br>(평일 브레이크타임 : 14:30~17:30 / 라스트 오더  : 20:30),연중무휴,전가복,전가복 / 양장피 / 짜장면 / 짬뽕 / 야끼우동 / 볶음밥 / 탕수육 / 깐풍기 / 라조기 외,,모두 금연석,가능,가능(일부 메뉴),전화 예약 가능 (053-354-9300),,20000168496
촉향원,42714,촉향원,053-588-2111,대구광역시 달서구 달서대로85길 17,35.8371134304,128.4897395676,"※ 영업시간 11:00 ~ 23:00

중국 정통 사천 샤부샤부 전문점으로서 특유의 맛과 질감을 살린 맛으로 다양한 메뉴를 선보이고 있다. 또한 신선한 재료만을 엄선하여 정성 들여 조리하는 촉향원만의 맛깔스러운 음식과 깔끔하고 모던하게 꾸민 실내 인테리어는 각종 모임, 회식자리에도 손색이 없다. 단체 예약을 위한 10인석, 20인석, 30인석, 50인석 등 각종 모임에 편안한 룸이 준비되어 있다.",0507-1389-0068,,,주차 가능,0,2007년 02월 01일,11:00 ~ 23:00,연중무휴,훠궈,훠궈 / 마라탕 / 꿔바로우 외,,모두 금연석,가능,가능(일부 메뉴),전화 예약 가능 (053-588-2111),,20070181091
한옥집김치찜,41908,한옥집김치찜,053-425-8653,대구광역시 중구 동덕로 168-2,35.8697562961,128.6047840806,"동인동한옥집김치찜은 대구광역시 중구 동인동2가에 있다. KBS 2TV 시사 교양 프로그램 생생정보에 출연한 바 있다. 예스러운 외관과 깔끔함이 돋보이는 인테리어가 눈에 띈다. 저렴한 가격이지만, 맛은 결코 저렴하지 않고 훌륭한 김치찜과 김치찌개가 대표 메뉴다. 푸짐한 김치와 고기, 적당히 칼칼한 맛이 매력적이다. 공깃밥과 라면 사리는 무제한으로 먹을 수 있다. 대구 지하철 1호선 칠성시장역과 북대구IC에서 가깝다. 인근에는 청라언덕, 약전골목, 대구근대역사관 등이 있어 연계 여행에 나서기 수월하다.",053-425-8653,,,없음,0,2005년 07월 01일,10:00 ~ 21:30,연중무휴,김치찜,김치찌개,,모두 금연석,가능,,예약 불가,,19990158074
석산복어해물,41179,석산,053-943-4030,대구광역시 동구 효동로2길 27,35.8810864297,128.6513907705,"※ 영업시간 11:00 ~ 22:00

대구 동촌유원지 인근에 위치한 20년 넘는 전통의 복어·해물요리 전문점이다. 복어를 샤브, 수육, 불고기, 찜, 탕&지리 등 다양한 형태로 즐길 수 있다.",0507-1428-4030,,,주차 가능,0,,10:30 ~ 22:00,연중무휴,밀복코스,밀복코스 / 밀복불고기 / 밀복수육 / 복해물탕 외,,모두 금연석,가능,가능(일부 메뉴),전화 예약 가능 (053-943-4030),,19980160161
바다회세상,41179,바다회세상,053-954-0013,대구광역시 동구 효동로2길 27,35.8810864297,128.6513907705,"바다회세상은 대구 동구 동촌역 인근에 위치한 횟집이다. 음식점 앞 주차가 가능하고 내부는 좌석이 넉넉하며 아늑한 분위기이다. 대표 메뉴로 모둠회를 취급하는데 광어, 우럭, 숭어로 구성되어 있다. 이곳의 회는 식감이 쫄깃하고 두툼하여 많은 사람들의 입맛을 충족시킨다. 주변 관광지로 동촌 유원지, 국립대구기상과학관 등이 있다.",053-954-0013,,,가능,0,1998년 05월 10일,11:00~24:00,연중무휴,모둠회,모둠회 / 바다스페셜 / 광어 / 우럭 / 세꼬시 / 물회 / 회덮밥 / 매운탕 등,,모두 금연석,가능,가능(일부 메뉴),전화 예약 가능 (053-954-0013),,19980160277
거송복어,41146,거송복어,053-984-6755,대구광역시 동구 동촌로 263,35.8803146164,128.6687559296,대구 동구 맛집으로 33년 오랜 전통을 자랑하며 고급 재료인 복어를 사용한 요리를 저렴한 가격으로 판매하는 거송복어는 1985년도부터 시작해 어머니의 손맛을 이어받은 아드님이 함께 33년 전통의 대를 있고 있는 대구 동구 맛집으로 92년 보건복지부 장관 표창을 받은 전통의 복어요리 전문점이다.,053-984-6755,,,주차 가능,0,,10:30 ~ 22:00 (전화문의),,복매운탕 / 아귀찜,복매운탕 / 아귀찜 / 복어찜 / 가오리찜 / 복전골 / 복어불고기 외,,모두 금연석,가능,가능(일부 메뉴),전화 예약 가능 (053-984-6755),,19800160041
군불로,41008,군불로,053-986-0088,대구광역시 동구 갓바위로 244,35.9701416412,128.7273260310,"갓바위 지구에 위치한 20년 넘는 전통의 음식점으로 오리, 닭, 전골류 등 다양한 음식을 제공하고 있다.",053-986-0088,,,주차 가능,0,,09:00 ~ 22:00,주말,흑염소숯불구이,흑염소숯불구이 / 생오리구이 / 한정식 / 산채비빔밥 / 더덕구이 / 해물파전 외,,모두 금연석,가능,가능(일부 메뉴),전화 예약 가능 (053-986-0088),,20020160558
수반,42492,수반,053-656-8848,대구광역시 남구 앞산순환로 391,35.8323293078,128.5684994281,"대구 남구청에 지정한 별미음식점인 수반은 곤드레밥정식 전문점이다. 실내는 황토 등을 사용하여 향토적인 느낌으로 꾸며져 있다. 건드레밥정식 이외에도 더덕구이, 아바이순대, 파전 등 다양한 음식들을 먹을 수 있다.<br>",053-656-8848,,,주차 가능,0,,11:00 ~ 21:00,명절당일 및 익일,곤드레밥정식,곤드레밥정식 / 불고기정식 / 게장정식 / 돌솥더덕정식 / 밴댕이정식 외,,모두 금연석,가능,,전화 예약 가능 (053-656-8848),,19930166112
물베기한정식,42410,물베기한정식,053-651-3500,대구광역시 남구 중앙대로51길 23,35.8561742112,128.5891052839,"※ 영업시간 10:00 ~ 22:00

대구 남구 대명동에 위치한 한정식집이다. 삼원가든(삼원한정식)으로 오랜 영업을 해오다 옛 마을 이름인 물베기마을을 지켜 나가고자 물베기한정식으로 이름을 바꾸었다. 점심에는 저렴한 가격에 한정식을 즐길 수 있도록 점심특선을 준비하였으며, 한정식 이외에 유황 생오리, 한우 갈빗살 등의 메뉴도 있다.",053-651-3500,,,주차 가능,0,,10:00 ~ 22:00 (전화문의),명절연휴,물베기한정식,물베기한정식 / 코다리찜정식 / 돌솥정식 / 곤드레돌솥정식 / 산채비빔밥 외,,모두 금연석,가능,가능(일부 메뉴),전화 예약 가능 (053-651-3500),,20000166355
영남식당,41843,영남식당,053-555-0933,대구광역시 서구 와룡로66길 55-1,35.8622421349,128.5438341034,"영남식당은 대구 서구 중리동 막창골목 내에 위치한 곱창 전문점이다. 1978년 포장마차로 시작하여 2대째 대를 이어 40년 넘은 오랜 전통을 가진 음식점으로 그만큼 쌓인 노하우를 자랑한다. 대표 메뉴는 주먹시+곱창전골이다. 주먹시는 흔히 토시살이라고 부르는 부위로, 이 부위와 곱창과 대창이 따뜻하고 칼칼한 국물과 어우러져 고소하고 담백한 맛을 낸다.  이곳은 매장을 항상 청결하게 유지하며, 고객들에게 친절한 서비스를 제공한다. 영남식당의 전골은 밀키트로 맛볼 수 있는데 전국 택배로 하루 한정 수량으로 판매한다.",053-555-0933,,,가능,0,,10:00~23:00,"매월 첫째 주, 셋째 주 일요일",주먹시 / 곱·대창전골,주먹시 / 곱·대창전골 / 곱·대창구이 / 대창볶음 / 차돌박이 등,,모두 금연석,가능,가능,전화 예약 문의 (053-555-0933),,19840163012
연화정삼계탕,42733,연화정삼계탕,053-526-8380,대구광역시 달서구 구마로 116,35.8369116054,128.5403684451,"30년 이상 명맥을 유지하면서도 오래도록 사랑을 받아온 삼계탕집이다. 상황버섯, 전복, 산삼배양근 등 다양한 건강 재료를 넣은 삼계탕을 판매하는 삼계탕 전문점으로 포장 및 배달도 가능하다.",053-526-8380,,,주차 가능,0,1994년 05월 11일,10:00 ~ 21:30,명절연휴,연화정 삼계탕,연화정 삼계탕 / 상황버섯 삼계탕 / 황제탕 / 산전탕 / 버전탕 외,,모두 금연석,가능,가능(일부 메뉴),전화 예약 가능 (053-526-8380),,20050181657